name,location,location,rate,votes,cost,cuisines,lat,lon
The Boozy Griffin,Koramangala 5th Block,Koramangala 5th Block,4.6,4997,1800.0,"European, Continental",13.006701532503298,77.57601371036249
Smoor,Bannerghatta Road,Jayanagar,3.6,17,900.0,"Desserts, Cafe, Beverages",13.069826449597702,77.6377607328141
Hotel Oottupura,Ejipura,Koramangala 5th Block,3.6,21,200.0,South Indian,13.02240077946629,77.55503258099714
Roots,Koramangala 1st Block,Koramangala 4th Block,4.5,1888,1200.0,"North Indian, South Indian, Chinese, Continental, Mangalorean",12.974184685021813,77.56479780730388
Krishna Vaibhava,BTM,JP Nagar,3.5,40,350.0,"North Indian, South Indian",13.031946306452152,77.58534478492028
Ivy,Kumaraswamy Layout,JP Nagar,3.8,210,600.0,"North Indian, Chinese, Fast Food",13.082082217915623,77.61213650528482
Arabian Bites,BTM,Koramangala 4th Block,3.4,24,500.0,"North Indian, Chinese",12.90242749166304,77.67348112391849
Red Lantern,Cunningham Road,Residency Road,3.7,162,700.0,"Chinese, Thai",12.976057049666908,77.62099596259833
Haagen Dazs,Koramangala 7th Block,Koramangala 5th Block,3.9,79,800.0,"Ice Cream, Desserts",13.052683562844134,77.69650090470469
Ambur Biryani Point,Koramangala 1st Block,HSR,4.2,425,250.0,"Biryani, Kebab",13.048666582713132,77.62747227823519
Stoner,Indiranagar,Old Airport Road,4.4,2699,550.0,"Ice Cream, Pizza, Beverages",12.9558557275797,77.66134365203779
Oliver Wraps,HSR,Koramangala 6th Block,3.1,8,300.0,"Rolls, Fast Food",12.951873164233499,77.54604717066198
Khan's Biryani,BTM,Jayanagar,3.0,11,200.0,"Biryani, North Indian",13.051324557617988,77.68619389829767
The Mylapore Cafe,HSR,Koramangala 7th Block,4.1,121,200.0,"South Indian, Kerala",12.947152302572714,77.57765879065151
Refresh,Brookefield,Marathahalli,3.2,503,500.0,"Cafe, Beverages",12.973477457830391,77.51280062182835
China Bowl,Koramangala 6th Block,Koramangala 4th Block,3.9,455,1000.0,Chinese,13.065534227113838,77.51787495557699
Raj Rasoi,Ejipura,BTM,3.5,12,250.0,"North Indian, Chinese",12.933251066069941,77.53962897621936
Cinnamon,Seshadripuram,Rajajinagar,3.7,28,1000.0,"North Indian, Asian, Continental",12.917235765485607,77.58286496719671
Cool Lassi Burger,Koramangala 5th Block,BTM,3.1,7,200.0,"Beverages, Fast Food, Burger",12.92843627527747,77.60769611522501
Mudpipe Cafe,BTM,Koramangala 7th Block,4.5,1880,900.0,"Cafe, Continental, Burger",13.005703034231953,77.69857447108672
Cashmere Nites,Koramangala 6th Block,Koramangala 7th Block,3.5,74,600.0,Kashmiri,12.908973492612521,77.54751119224632
Helloo Delhi,Koramangala 4th Block,BTM,4.1,221,1000.0,North Indian,12.93583278365803,77.55953943295373
Masala Secret Eat WOW,HSR,HSR,3.6,14,300.0,"Street Food, Fast Food, Chinese, Momos",13.01614742795947,77.52115521411
BITEBOX,Marathahalli,Brookefield,4.4,150,300.0,"North Indian, Chinese, Fast Food, Beverages, Desserts",13.085726112423078,77.60172178952733
Lassi Corner,Koramangala 5th Block,Koramangala 6th Block,3.5,16,300.0,"Beverages, Desserts",13.01273360901866,77.67219673983566
Cakes & Slices,Banashankari,Banashankari,3.5,13,300.0,"Bakery, Desserts",13.0045465658764,77.52341743347097
Ovenstory Pizza,Hosur Road,Electronic City,4.0,55,750.0,Pizza,13.042940463276452,77.69451519414122
Pathaan Sir,Kammanahalli,Kammanahalli,3.3,58,300.0,"Rolls, Chinese",12.932807989415283,77.60035183467372
Ulavacharu,Koramangala 5th Block,Koramangala 6th Block,4.2,151,900.0,"Andhra, North Indian, Chinese",13.044429503748558,77.64472892276916
Alibaba Cafe and Restaurant,Kalyan Nagar,Kalyan Nagar,2.9,56,700.0,"Arabian, Middle Eastern",12.936826004616238,77.61553726840344
Patiala Zone,Marathahalli,Marathahalli,3.1,20,400.0,"North Indian, Mughlai",13.087849544575022,77.6677491010127
New Hilal Restaurant,Shivajinagar,Residency Road,4.0,111,700.0,"North Indian, Chinese, Mughlai",13.054760666249496,77.57987007347278
Swasthaa,Sanjay Nagar,Lavelle Road,3.5,5,600.0,"Continental, Desserts, Italian, Japanese, Mexican",13.043309813604658,77.64081605400546
Jayanthi Sagar,Koramangala 5th Block,Koramangala 7th Block,3.1,21,200.0,"South Indian, North Indian, Chinese",12.943132631963483,77.5495847151884
Sukh Sagar,Koramangala 5th Block,BTM,3.8,473,500.0,"South Indian, North Indian, Chinese, Street Food",12.93909160007368,77.66151608028089
Premium Bombay Kulfi,Indiranagar,Old Airport Road,3.5,11,100.0,Ice Cream,12.977515200080143,77.68231820567023
Bangalore Agarwal Bhavan,Whitefield,Whitefield,3.0,5,500.0,"Mithai, Street Food",13.06148839771891,77.5964510565441
Fatso's,Brigade Road,Koramangala 6th Block,3.8,74,650.0,"Cafe, American, Italian, Burger",13.052009441192196,77.52976638230629
Corner House Ice Cream,Koramangala 5th Block,Koramangala 6th Block,4.6,278,400.0,"Ice Cream, Desserts",13.074065518740937,77.62679989967108
Hunan King's,Sahakara Nagar,New BEL Road,2.9,123,800.0,"Chinese, Thai, Momos",12.922774000521073,77.55512391234161
Kanti Sweets,BTM,Jayanagar,4.1,113,400.0,"Mithai, Street Food",13.013128976476958,77.68938349397308
Warm Oven,Marathahalli,Marathahalli,3.8,69,500.0,"Bakery, Desserts",12.9552367628813,77.53544855546491
Ambur Biryani Point,Koramangala 1st Block,Koramangala 6th Block,4.2,429,250.0,"Biryani, Kebab",12.934363235660255,77.68644351279221
Hotel Empark,Wilson Garden,Jayanagar,3.4,16,800.0,"Chinese, North Indian, Arabian",13.04849151284271,77.58445712089319
Chandus Delux,Malleshwaram,Malleshwaram,3.9,81,600.0,"South Indian, North Indian, Seafood, Chinese",13.074982366650957,77.6909331078634
Foodies Choice,Nagawara,Kammanahalli,3.7,48,150.0,"Arabian, Chinese, Fast Food, Beverages",12.942396304159853,77.51404549151862
Artinci Artisanal Ice Cream,HSR,HSR,3.5,7,300.0,"Ice Cream, Desserts",13.019294915508791,77.589937907397
Happy Hours,Seshadripuram,Malleshwaram,3.8,24,400.0,"Cafe, Desserts",13.08668228591035,77.58683273895856
Andhra Ghumaghumalu,Whitefield,Whitefield,3.5,18,300.0,"Andhra, Biryani, North Indian",12.99120757296289,77.53777075377114
Wow! Sikkim Momo,New BEL Road,New BEL Road,3.3,18,150.0,"Chinese, North Indian, Momos",13.075563834514014,77.59960448116277
Foreign Caf횄혘횂혘횄혗횂혘횄혘횂혗횄혗횂혘횄혘횂혘횄혗횂혗횄혘횂혗횄혗횂혘횄혘횂혘횄혗횂혘횄혘횂혗횄혗횂혗횄혘횂혘횄혗횂혗횄혘횂혗횄혗횂짤,Indiranagar,Old Airport Road,3.1,54,500.0,Continental,12.93721000656174,77.6522421372011
Beijing Bites,Richmond Road,Residency Road,3.8,266,850.0,"Chinese, Thai",13.006188746214473,77.55654523949804
Crunch Pizzas,Ulsoor,Lavelle Road,2.5,34,600.0,"Italian, Pizza",12.932112475561636,77.69228076101768
The Lounge - Eden Park Restaurants,Jayanagar,Basavanagudi,3.7,151,1350.0,"North Indian, Afghani",12.96994064594917,77.60391721059342
Church Street Social,Church Street,Church Street,4.3,7547,1500.0,"American, North Indian, Chinese, Finger Food, Momos",12.95595338617741,77.64090397872553
Davis Bar And Restaurant,Kammanahalli,Kammanahalli,3.0,31,700.0,"North Indian, Finger Food, Chinese",13.05450528463252,77.54733180568893
Billionaires Cafe,Koramangala 5th Block,BTM,3.8,47,600.0,"Cafe, Italian",13.02513638245227,77.52479744132528
Mojo Pizza - 2X Toppings,BTM,JP Nagar,4.3,476,600.0,Pizza,12.974663081273189,77.6795520447234
BISO - Citrus Hotels,Cunningham Road,Frazer Town,3.9,158,1100.0,"North Indian, South Indian, Italian, Continental",13.016045706439828,77.68553887995037
Facebake,Banaswadi,Kammanahalli,3.7,68,300.0,"Bakery, Desserts",12.957791563828144,77.5514425747075
Vasudev Adiga's,MG Road,MG Road,2.5,301,250.0,"South Indian, North Indian, Chinese, Street Food",12.963949680245314,77.6487447259255
PurpleBasil.in,Kammanahalli,Kammanahalli,4.1,77,500.0,"Healthy Food, Desserts",12.948308562543195,77.51963913324154
Soo Ra Sang,Indiranagar,Indiranagar,4.1,290,1500.0,Korean,12.964959783076072,77.64619576867392
Chatpata India,Whitefield,Whitefield,3.9,104,400.0,North Indian,13.057054013182015,77.58306517952559
Melt,BTM,Koramangala 4th Block,4.0,115,1000.0,"Continental, Steak, Fast Food",13.017328602489126,77.5232401254341
Chatorr,Bellandur,Bellandur,2.9,78,400.0,"Fast Food, Street Food",13.04141729545334,77.51233829021395
Xpress Biryani,Ulsoor,Church Street,4.3,148,650.0,"Biryani, North Indian, Kebab",12.911952454835678,77.51659511887807
Cafesta,Whitefield,Brookefield,4.3,559,550.0,"Cafe, Italian, Fast Food, Desserts",12.936236655810017,77.56653813626625
Cravy Wings,Bannerghatta Road,Basavanagudi,4.2,289,400.0,"American, Burger, Fast Food",12.936229869906937,77.62304984104343
Punjabi Restaurant,RT Nagar,Kalyan Nagar,3.3,238,400.0,"North Indian, Chinese",12.972329065551005,77.66723724166305
The Crust Factory,Yeshwantpur,Malleshwaram,3.5,11,400.0,"Bakery, Cafe, Desserts",12.995937350924097,77.52067933907641
Delicious Momos,Kalyan Nagar,Kammanahalli,3.9,48,200.0,"Street Food, Momos",13.096937110783047,77.66093695929061
OCEA HOTEL,Brigade Road,MG Road,3.7,281,800.0,"North Indian, Chinese, Seafood",12.948572930106254,77.61277720674693
New Mahesh Friends Food Corner,BTM,Koramangala 7th Block,3.2,55,300.0,"North Indian, Chinese",13.061116849828725,77.56583019294976
A2B Veg - Adyar Ananda Bhavan,Jayanagar,Jayanagar,2.8,210,400.0,"South Indian, North Indian, Chinese, Street Food, Fast Food",13.05157162441442,77.5927051818199
Bearfoot Cafe,Koramangala 6th Block,Koramangala 7th Block,4.2,177,600.0,Cafe,12.952109002821947,77.6764978760694
Gilly's Restobar,Electronic City,Electronic City,4.3,1249,1200.0,"Continental, North Indian, Chinese, Salad",12.908117142426939,77.61180406785897
The French Loaf,Ulsoor,Brigade Road,2.9,46,400.0,"Bakery, Desserts, Sandwich",12.906229818558678,77.55906570402804
Classic Lassi Shop,Ulsoor,Lavelle Road,3.4,43,150.0,"Beverages, Ice Cream",12.95615508145205,77.63221895986099
El Salver,BTM,Koramangala 6th Block,3.9,74,900.0,"North Indian, Chinese, South Indian",12.926064822712025,77.61554600062763
Casa De Goa,Kalyan Nagar,Kammanahalli,4.2,341,1400.0,"Goan, Mangalorean",13.0257721170689,77.68520706714713
Mooch Marod,Koramangala 6th Block,Koramangala 5th Block,4.2,94,400.0,North Indian,12.906582159390988,77.59599268744473
Ice - Taj MG Road Bengaluru,MG Road,Church Street,4.1,608,2800.0,Continental,13.013264576033306,77.64111793267584
UBQ By Barbeque Nation,Kalyan Nagar,Kammanahalli,3.1,14,450.0,"North Indian, BBQ, Biryani, Kebab",13.083795865100079,77.60534854274432
Calvin's,Koramangala 5th Block,Koramangala 4th Block,3.8,433,800.0,Desserts,12.969865407195183,77.65224626708132
South Indian Kitchen,JP Nagar,Jayanagar,3.3,6,300.0,"Asian, BBQ, South Indian, Chinese",13.04534696727067,77.62091175153836
Diya's Findish,Bommanahalli,Bannerghatta Road,3.3,6,500.0,"North Indian, Chinese, Bengali",12.913470120293754,77.55342776909869
Sitara Veg Restaurant,Electronic City,Electronic City,3.9,417,400.0,"South Indian, North Indian, Chinese",12.938757826004672,77.68865522015393
Rahhams,Kammanahalli,Kammanahalli,3.5,312,700.0,"Mughlai, North Indian, Chinese",13.093180598373161,77.65121157731325
Selfie Cafe,Koramangala 7th Block,Koramangala 4th Block,3.7,19,300.0,"Beverages, Fast Food, Desserts",13.076780362992022,77.53287781408827
FreshEats,East Bangalore,Whitefield,3.6,14,400.0,"Continental, North Indian, Thai",12.903604850632888,77.58953992459462
Woodfire Pizza,Thippasandra,Indiranagar,3.1,30,400.0,"Pizza, Fast Food",13.060840581459557,77.61583822327307
"Cakes, Crumbs & Magic",Kalyan Nagar,Kalyan Nagar,3.3,4,300.0,Bakery,12.910990690773726,77.68473459839787
Sector 7 Caf횄혘횂혘횄혗횂혘횄혘횂혗횄혗횂혘횄혘횂혘횄혗횂혗횄혘횂혗횄혗횂짤,HSR,BTM,4.3,1101,700.0,"Cafe, Continental, Pizza, Salad",13.021642275353289,77.6240675549644
Gilly's Restobar,Brookefield,Marathahalli,4.4,1788,1200.0,"Continental, Finger Food, North Indian, Chinese",13.050677084803121,77.66916921002148
Noon's,HSR,BTM,4.2,161,300.0,Biryani,12.917393404051188,77.63649219572899
Le Cirque Signature - The Leela Palace,Old Airport Road,Indiranagar,4.3,126,6000.0,"French, Italian",12.906412703418908,77.58286528616539
The Rice Bowl,Lavelle Road,MG Road,4.3,509,1300.0,"Chinese, Momos",12.98180542418293,77.5001529532645
Indian Spice Food,Ulsoor,Residency Road,3.7,33,300.0,"North Indian, Chinese",12.999835951301693,77.6785911567342
Crispy Crust Pizza,Indiranagar,Old Airport Road,3.1,45,450.0,Pizza,12.976856113691952,77.53990096717087
Nammura Baduta,Vasanth Nagar,Malleshwaram,3.3,8,350.0,South Indian,12.915860494950678,77.51399443444325
Chaai Resto,Sarjapur Road,Bellandur,4.1,33,200.0,"Cafe, Rolls, Fast Food",13.065195642541616,77.62577469405603
Polo Club - The Oberoi,MG Road,Residency Road,4.1,116,3000.0,"American, North Indian, European, Tex-Mex",12.91205952027151,77.58540675821452
Hearts Unlock Cafe,BTM,Bannerghatta Road,3.2,11,500.0,"Cafe, Healthy Food",13.004032700222398,77.57045597866284
Billionaires Cafe,Koramangala 5th Block,Koramangala 7th Block,3.8,47,600.0,"Cafe, Italian",12.900676797314796,77.65776937982632
Fresh Pressery Cafe,Lavelle Road,MG Road,4.0,104,1200.0,"Cafe, Italian, Healthy Food",12.990485377293341,77.52128910934935
What the Food,BTM,Koramangala 4th Block,3.6,38,250.0,"North Indian, Chinese, Fast Food",13.006092600008163,77.61154335703016
China Tang,BTM,Koramangala 6th Block,3.7,41,600.0,Chinese,13.077666925355752,77.59889424689811
Best B Restaurant,HBR Layout,Kammanahalli,3.5,12,400.0,"South Indian, North Indian, Chinese, Kerala",12.916103311718302,77.53468092754227
Agent Jack's Bar,Indiranagar,Old Airport Road,4.1,597,1300.0,"Continental, North Indian, Italian",13.027334573600276,77.66528620455158
Tawa Ghar Ka,HSR,Koramangala 4th Block,3.8,331,350.0,North Indian,13.004278947252587,77.55513805422423
Biryani Durbar,Bannerghatta Road,JP Nagar,3.7,129,400.0,"Biryani, North Indian",13.02329587170825,77.53740976936741
Anjappar,Indiranagar,Old Airport Road,3.8,777,650.0,"Chettinad, South Indian",12.913092744260405,77.6686638129907
Subway,Sarjapur Road,HSR,3.9,93,600.0,"Salad, Fast Food",12.952761214989271,77.6199425469268
Crescent Avenue - Hotel Bangalore International,Race Course Road,Brigade Road,3.6,41,1400.0,"North Indian, Continental, Chinese, Asian, Thai",13.00384491415604,77.69286730449699
Healthie,Indiranagar,Brigade Road,3.9,189,600.0,"Healthy Food, Beverages",12.925573360244483,77.63058692314031
Karachi Bakery,Koramangala 5th Block,BTM,3.3,5,400.0,"Bakery, Desserts",12.950434575499106,77.50864006017115
The Spice Pavillion,Marathahalli,Marathahalli,3.7,126,600.0,North Indian,12.946415817637604,77.52447939070828
Vaigai Express,Whitefield,Brookefield,3.3,9,400.0,"South Indian, North Indian, Chinese",12.97774526957531,77.69379278860809
Flavour of China,BTM,Koramangala 6th Block,3.8,254,600.0,Chinese,13.005408799365735,77.51253730148032
Aadvik Nightfood,Frazer Town,Frazer Town,3.6,22,350.0,Fast Food,12.910809525469945,77.57355522653037
Lavonne,Indiranagar,Indiranagar,4.4,1099,800.0,"Cafe, Desserts",12.955566579912931,77.52605668408428
Tetto,Koramangala 1st Block,Koramangala 6th Block,3.7,130,1200.0,Continental,13.09263154005122,77.51473319972999
Barkat,BTM,Koramangala 5th Block,3.4,6,250.0,Kerala,13.09422110167295,77.63441254284224
The Fixx,Koramangala 4th Block,Koramangala 4th Block,4.3,216,1200.0,"Continental, South Indian, Italian, North Indian, Chinese",13.044384793985786,77.53972904107324
The North and South Restaurant,Whitefield,Marathahalli,3.2,19,400.0,"North Indian, Chinese, South Indian",13.003609176882279,77.58561057191145
Shanmukha,Old Airport Road,Old Airport Road,3.8,149,800.0,"Biryani, Andhra, North Indian, Chinese",13.026182585293165,77.68270978802123
Nammura Upachara,Basaveshwara Nagar,Malleshwaram,3.6,41,300.0,"Chinese, North Indian, South Indian",13.075109574493085,77.5307449776471
Kinara Tiffany,Vasanth Nagar,Lavelle Road,3.6,16,100.0,South Indian,12.92242385003254,77.6413452685442
4 Seasons Restaurant,Kalyan Nagar,Kalyan Nagar,3.7,399,1000.0,"North Indian, Seafood, Middle Eastern, Chinese",13.013107782923932,77.5758741231679
Cream & Fudge,Whitefield,Whitefield,3.9,71,250.0,"Ice Cream, Desserts",13.021718417321033,77.59276150034863
Sai Bhavan Veg & Non Veg,Banaswadi,Kalyan Nagar,3.2,11,400.0,"Mughlai, Chinese, South Indian",12.925836783561751,77.59523157622586
KFC,Kammanahalli,Kammanahalli,3.1,639,450.0,"Burger, Fast Food",12.97775902379228,77.54033799194134
Vinny's,Banashankari,Basavanagudi,4.2,2115,800.0,"Pizza, Italian, Continental, Desserts",13.033518677112717,77.66457635710816
Gorilla Barfare,Koramangala 6th Block,Koramangala 6th Block,4.2,271,1400.0,"Continental, Pizza, Burger",13.009198827084594,77.56393780935962
ReadyBowl,Bellandur,Sarjapur Road,3.6,76,300.0,"Andhra, South Indian, North Indian, Biryani",13.029145563160103,77.66328756973105
Ambur Hot Dum Biryani,Hennur,Kammanahalli,3.1,6,250.0,"Biryani, Kebab",13.091251839605476,77.67094546121903
154 Breakfast Club,Koramangala 3rd Block,Koramangala 4th Block,4.0,1513,900.0,"Cafe, Continental",12.992874064036409,77.56592656555301
CTR,Malleshwaram,Rajajinagar,4.8,4421,150.0,South Indian,12.982422469392954,77.59389268047435
The Belgian Waffle Co.,Residency Road,MG Road,3.7,78,350.0,"Desserts, Beverages",13.089090110023557,77.6705596206005
Paisa Vasool,Koramangala 7th Block,Koramangala 6th Block,3.3,395,400.0,North Indian,13.053122656804433,77.53054021763825
Mysore Carnival Restaurant,Koramangala 6th Block,Koramangala 7th Block,3.8,14,350.0,"Chinese, Kerala, North Indian, South Indian",13.03777862160649,77.6872109540831
Kerala Mess,Indiranagar,Old Airport Road,3.6,36,300.0,Kerala,13.085769195175251,77.6474618403095
Ahmad's Chicken Hut,Banaswadi,Kammanahalli,3.2,9,200.0,"North Indian, Chinese",13.049253212266441,77.5593926706144
Anupam's Coast II Coast,Koramangala 6th Block,Koramangala 7th Block,4.1,845,700.0,"Seafood, Mangalorean, North Indian, Chinese",13.066739443398806,77.56488209919526
King Burger Cafeteria,Indiranagar,Old Airport Road,3.1,11,250.0,"Fast Food, Juices",12.955372186309313,77.50741602054134
Shree Guru Sagar,Basaveshwara Nagar,Malleshwaram,3.5,40,500.0,"Chinese, North Indian, South Indian",12.90218139906356,77.6375316278206
Flame Pub & Restaurant - Brigade Garden,Brigade Road,Lavelle Road,2.9,24,1900.0,"Bar Food, North Indian",13.027079911495822,77.6010143823091
Parivaar,BTM,BTM,3.3,7,600.0,"Biryani, North Indian, Chinese",12.977011611143793,77.6829617318507
Shiv Sai,Bannerghatta Road,Bannerghatta Road,3.2,4,400.0,North Indian,13.021547358975772,77.68011771357396
Kebabs & Kurries - ITC Gardenia,Richmond Road,Brigade Road,4.3,355,3500.0,"North Indian, Mughlai",12.955402504865196,77.51852729254469
Daawat Restaurant Bar & Pub,Koramangala 7th Block,BTM,3.5,9,700.0,"Finger Food, North Indian, Seafood, Mangalorean, Chinese",12.921242765517691,77.59763914570476
Swaadishta Restaurant,Sadashiv Nagar,Malleshwaram,2.5,60,750.0,"Andhra, North Indian, Chinese, Mangalorean",13.034952608278283,77.64612083568798
Malabar Cafe,Bannerghatta Road,Koramangala 5th Block,3.3,4,400.0,"South Indian, Kerala, Biryani",13.0422454562941,77.5940736265752
Fabindia Cafe,Koramangala 2nd Block,Koramangala 5th Block,4.2,226,200.0,"Cafe, Street Food",13.068136301723516,77.57718793028744
RCS Kitchen,BTM,JP Nagar,3.3,34,500.0,Continental,12.922149701566102,77.50246573710773
Lotus Pavilion - ITC Gardenia,Richmond Road,Residency Road,4.2,178,3000.0,Continental,13.056365542529782,77.60491067830631
Momo Junction,BTM,BTM,3.8,30,100.0,"Fast Food, Momos",13.06436786455058,77.59075312784569
Crunch Pizzas,Banaswadi,Kammanahalli,2.9,77,400.0,Pizza,13.052434221096735,77.51730912347989
Ambur Hot Dum Biryani,Shanti Nagar,Brigade Road,3.1,6,250.0,"Biryani, Kebab",12.99679787363595,77.5909157148375
The Zaika Of Banaras,Marathahalli,Bellandur,3.4,26,350.0,"North Indian, Street Food",13.037544408486111,77.6965460209716
Feast and Burp,Bannerghatta Road,Church Street,3.3,4,300.0,North Indian,13.045093633690032,77.54527808069194
The Litti Company,Koramangala 4th Block,Koramangala 7th Block,3.7,17,400.0,Bihari,13.00058678741665,77.54406509068639
Copper Chimney,Indiranagar,Old Airport Road,4.2,97,1200.0,"North Indian, Biryani",12.917281831952028,77.54742353322581
New Modern Hotel,Basavanagudi,Basavanagudi,4.2,280,150.0,South Indian,12.966902257748387,77.53026329236322
Hit and Run,Central Bangalore,Brigade Road,3.7,15,350.0,"Fast Food, Continental",13.060898928486365,77.52029147610155
Beijing Bites,JP Nagar,JP Nagar,3.7,11,400.0,"Chinese, Thai, Momos",12.931988160473386,77.68656996015375
Hotel Green Tara,Brigade Road,Lavelle Road,3.9,42,500.0,"Chinese, Tibetan, Momos",12.993000402605338,77.5529722271694
Targaryen's Kitchen,JP Nagar,Jayanagar,3.6,43,600.0,"Chinese, North Indian, Mughlai",13.010902511138193,77.69871799944531
Beijing Bites,"Varthur Main Road, Whitefield",Brookefield,3.4,23,400.0,"Chinese, Thai, Momos",13.086860822833497,77.69146288748159
SLV Andhra Mess,Domlur,Koramangala 6th Block,3.5,6,200.0,"Chinese, North Indian",12.936046730363692,77.53360988006351
Cafe D'hide,Koramangala 5th Block,Koramangala 4th Block,4.2,872,600.0,"Cafe, American, Continental, Italian",13.080995376356336,77.6652532854958
Red Chilliez,Thippasandra,Indiranagar,3.6,216,550.0,"North Indian, South Indian, Chinese, Seafood",13.089813878729084,77.64587551557494
Hungry Nights,BTM,Jayanagar,3.0,54,300.0,"Chinese, North Indian",12.964795221312308,77.55132048695519
Cafe Coffee Day,Seshadripuram,Residency Road,2.8,26,900.0,"Cafe, Fast Food",12.915585426576225,77.60033530731309
New Friends,BTM,Koramangala 7th Block,3.8,273,900.0,"North Indian, Continental, Chinese, Steak",12.91040596938997,77.53009260233132
Starbucks,Sadashiv Nagar,Malleshwaram,4.3,177,700.0,"Cafe, Desserts",12.930120054685519,77.62561698464928
Kolkata Famous Kati Roll,Bellandur,Sarjapur Road,3.3,7,100.0,"Fast Food, Rolls",12.965435388505709,77.65498081306596
Carnival Cakes & Breads,HSR,HSR,3.5,49,200.0,"Bakery, Fast Food",13.046665581743373,77.5179725602235
Tasty Jigarthanda,BTM,Jayanagar,3.4,11,150.0,"Beverages, Ice Cream",13.008752491183731,77.67043185678298
Donne Biriyani Mane,Kalyan Nagar,Kammanahalli,3.6,226,400.0,"Biryani, Kebab",13.01647411263167,77.65561887900905
Capsicum Family Restaurant,BTM,Koramangala 5th Block,3.8,256,800.0,"Biryani, North Indian",12.915959409311892,77.5682263542118
Mirch,HSR,HSR,3.7,94,400.0,"North Indian, Biryani",12.9969984569155,77.50697047667563
Bonsouth,Koramangala 5th Block,Koramangala 7th Block,4.2,2619,1300.0,"Chettinad, Andhra, Kerala",12.981394438982218,77.69686184637357
Shagun Sweets & Foods,BTM,Koramangala 5th Block,3.5,221,400.0,"Mithai, North Indian, Street Food, Chinese",13.0068004611495,77.54989907584506
Chai Point,Electronic City,Electronic City,3.9,25,250.0,"Tea, Beverages, Fast Food",13.08648879567547,77.64631654237176
Habitts,BTM,BTM,3.7,61,450.0,"Fast Food, Sandwich, Italian",12.963133696232813,77.56317565328052
Taco Bell,Brigade Road,Lavelle Road,3.9,35,600.0,"Mexican, American, Fast Food",12.988055834168158,77.55118404640123
Tangerine - Davanam Sarovar Portico Suites,Koramangala 2nd Block,BTM,4.0,150,1100.0,"Continental, Italian, North Indian, Asian, Bakery, Chinese, European, Japanese",13.014239836792584,77.64585596676822
Dragon's Kitchen,HSR,HSR,3.1,248,500.0,Chinese,13.010745646279672,77.56100534877757
Maiyas,Jayanagar,Jayanagar,4.0,1784,200.0,"North Indian, South Indian, Fast Food, Juices",12.926679847035498,77.69163083299088
Savera Cafe,Shivajinagar,MG Road,3.6,11,50.0,Cafe,13.025078479942703,77.60992150136592
Mandarin Box,Church Street,Brigade Road,3.9,80,500.0,Chinese,13.070994803912294,77.66398135968078
Ambara Gardenia,Bannerghatta Road,BTM,3.8,256,800.0,"Andhra, North Indian, Chinese, Seafood",13.089537235412855,77.65675151764225
Al Amanah Cafe,Kammanahalli,Kalyan Nagar,4.4,1418,300.0,"Middle Eastern, Fast Food, Rolls",13.094787114820885,77.54002699492618
Midnight Hunger Solutions 24/7,Koramangala 5th Block,BTM,3.2,11,500.0,"North Indian, Mughlai, Chinese",13.04244404103543,77.51748037717859
Dosa Bazaar,JP Nagar,Bannerghatta Road,4.0,112,200.0,"Street Food, South Indian",13.004613084953824,77.56707632164539
New Kudla Family Resturant,MG Road,Residency Road,3.2,6,450.0,"North Indian, Chinese",12.921869364659639,77.62870830098466
Sri Venkateshwara Sweet Meat Stall,Jayanagar,JP Nagar,4.1,201,250.0,Street Food,13.055797701179921,77.6118712736233
Bottle Breacher,JP Nagar,BTM,4.2,1192,1200.0,"Italian, Continental",12.903499642797478,77.56418510034867
Cafe Zamorin,Hennur,Kalyan Nagar,3.7,23,300.0,"Chinese, Kerala",12.970129856590804,77.67756843081246
Al-Baik Tandoori Restaurant,Nagawara,Kammanahalli,3.7,117,450.0,"North Indian, Chinese, Arabian, Biryani, Rolls",13.026121694330122,77.53779477815942
Five Star Chicken,Indiranagar,Indiranagar,3.7,78,200.0,"Fast Food, Burger",12.901391517460658,77.52906562839796
Sugarberryz Cakery,Commercial Street,MG Road,3.9,58,1200.0,"Bakery, Desserts",12.913912236697284,77.62716777378971
Wolf'ish,Church Street,Frazer Town,4.1,461,700.0,"Cafe, American, Italian, Pizza, Burger",12.978955063354336,77.53370356116761
Taj Durbar,Jayanagar,BTM,3.8,83,400.0,"North Indian, BBQ",13.08203922482894,77.65428180236864
Faasos,BTM,BTM,3.9,441,500.0,"North Indian, Biryani, Fast Food",12.920233123922621,77.60100960400224
Bhagini Kitchen And Bar,Marathahalli,Marathahalli,3.8,36,1100.0,"Andhra, South Indian, Chinese, North Indian",13.001038245750554,77.54407728780318
Watson's,JP Nagar,Jayanagar,4.0,1017,1300.0,"Finger Food, Chinese, Continental",12.92614694789157,77.62312058761015
The Bangalore Cafe,Shanti Nagar,Church Street,4.2,478,800.0,"Modern Indian, North Indian, Pizza, Continental, Beverages",12.960672856442834,77.5971297065008
Taste of Nepal,Koramangala 8th Block,Residency Road,3.4,27,300.0,Chinese,13.046117606137225,77.54414621426184
Sri Krishna Sagar,Electronic City,Electronic City,3.5,9,300.0,"South Indian, North Indian",12.953441979097216,77.54487125146933
Coffee House,Majestic,Lavelle Road,3.3,6,150.0,South Indian,12.916364784569193,77.58554595086319
BBQ@52,MG Road,Church Street,3.7,41,1500.0,"BBQ, Biryani, Continental",12.992761964934875,77.6838682289516
New Cool Joint,Sarjapur Road,HSR,3.5,23,150.0,"Fast Food, Beverages, Ice Cream, Juices, Sandwich",13.013111496645278,77.54742663129102
A2B - Adyar Ananda Bhavan,Indiranagar,MG Road,3.0,568,400.0,"South Indian, North Indian, Chinese, Street Food, Fast Food",13.054455325140388,77.50327351670047
Shri Vishnu Grand,Marathahalli,Sarjapur Road,3.1,142,450.0,"North Indian, South Indian, Chinese",12.959141819121,77.62464455250813
Daily Bite,Richmond Road,MG Road,3.5,14,250.0,"Desserts, Fast Food",12.960459980824469,77.58378619089868
The Cake House,Ulsoor,Residency Road,3.7,30,300.0,"Bakery, Fast Food",13.020137778371916,77.67355811908772
Pabrai's Fresh and Naturelle Icecreams,BTM,BTM,3.7,118,300.0,"Ice Cream, Desserts",13.060027516550415,77.51734586313715
Malabar Bay,BTM,Jayanagar,4.2,1541,800.0,"Kerala, Seafood, Chinese, Biryani, Juices",12.927545660303428,77.60677634497596
Midnight Hunger Solutions 24/7,Sanjay Nagar,New BEL Road,3.0,10,500.0,"North Indian, Mughlai, Chinese",12.91760105006114,77.57318989538904
YumYumDilli,Koramangala 7th Block,Koramangala 7th Block,3.7,53,500.0,North Indian,12.950351759757751,77.62297757659604
The Lakefront Kitchen,Electronic City,Sarjapur Road,3.7,19,600.0,"North Indian, Chinese, Mughlai",13.017611213467793,77.53243304230215
Bengaluru's Biryanis Paradise,Marathahalli,Marathahalli,3.7,26,300.0,Biryani,13.09768093843119,77.6072239253922
Cubbon Pavilion - ITC Gardenia,Richmond Road,MG Road,4.3,689,2500.0,"European, Continental, Chinese, Thai",12.972324062802688,77.53949914493926
Artinci Artisanal Ice Cream,Whitefield,Brookefield,4.0,58,300.0,"Desserts, Ice Cream",12.970163821867004,77.54828029402145
McDonald's,New BEL Road,New BEL Road,3.9,281,500.0,"Burger, Fast Food",12.9002894441042,77.5937003868725
Reddy's Paradise,Sarjapur Road,HSR,3.5,11,400.0,"Fast Food, Chinese, North Indian, Biryani",13.071674675952213,77.65508937401101
Waffle Magic,Koramangala 6th Block,Koramangala 4th Block,4.1,86,700.0,"Cafe, Desserts",13.077747157877324,77.56788082803645
Karachi Bakery,Koramangala 5th Block,Koramangala 6th Block,3.4,6,400.0,"Bakery, Desserts",12.955712542689946,77.69388477971593
Neethus Kitchen & Restaurant,Majestic,Rajajinagar,2.9,11,400.0,"North Indian, Chinese, South Indian",12.914796810018345,77.68602025751933
Sharaab Factory,Bellandur,Bellandur,3.9,392,1500.0,"Biryani, North Indian",12.940403133680498,77.65224283813033
Dunkin' Donuts,Brigade Road,MG Road,4.0,1086,550.0,"Desserts, Cafe, Beverages, Burger, Fast Food",13.018518069488893,77.5643279150521
Hotel Jai Jaganath,Marathahalli,Marathahalli,3.2,4,500.0,"Chinese, North Indian",12.936258494402782,77.6506024673549
South Side Grill,HSR,BTM,3.5,14,600.0,"Mughlai, North Indian, Andhra",12.973335775940596,77.6636829665407
Sangam Mess,Kammanahalli,Kammanahalli,4.2,232,300.0,"South Indian, Biryani, North Indian",12.994541379727258,77.53075354998427
Karavali Family Restaurant,Jayanagar,Koramangala 7th Block,3.5,90,500.0,"Seafood, Biryani, South Indian, North Indian, Chinese",12.982937541929886,77.61911404097971
Cake Box,Marathahalli,Bellandur,2.9,24,400.0,"Bakery, Desserts",12.916036002816382,77.65064823942822
BAR BAR,Whitefield,Whitefield,4.1,1003,1500.0,"Continental, North Indian, Italian",12.977703888075737,77.5634150381992
RICE BAR,Indiranagar,MG Road,3.0,12,500.0,"North Indian, Biryani",12.969959126158885,77.62749826691497
Mayur,Hosur Road,BTM,3.7,20,500.0,"North Indian, South Indian, Chinese",13.045526227539938,77.69794913498158
Smally's Resto Cafe,Koramangala 5th Block,Jayanagar,4.2,1700,650.0,"Cafe, Italian, Burger, American, Steak",12.957733260535091,77.65998922524169
Kolkata Kitchen,Electronic City,Electronic City,3.2,231,400.0,"North Indian, Fast Food, Biryani",12.919363746197444,77.56712496356917
Koshe Kosha,Koramangala 1st Block,Koramangala 4th Block,4.0,575,600.0,"Bengali, Seafood",13.039785532189043,77.5136984793775
Dum Biryani Hub,BTM,Koramangala 5th Block,3.9,66,700.0,Biryani,13.079873305784185,77.67978551745018
Lifetree Caf횄혘횂혘횄혗횂혘횄혘횂혗횄혗횂혘횄혘횂혘횄혗횂혗횄혘횂혗횄혗횂혘횄혘횂혘횄혗횂혘횄혘횂혗횄혗횂혗횄혘횂혘횄혗횂혗횄혘횂혗횄혗횂짤,Richmond Road,Residency Road,3.4,10,700.0,"North Indian, Chinese, Continental",13.066169256581675,77.67213517186998
Chai Point,Koramangala 6th Block,Koramangala 5th Block,4.0,293,250.0,"Tea, Beverages, Fast Food",12.981402158447464,77.65224071994851
Al Ameen Rolls Corner,Kammanahalli,Kammanahalli,3.7,16,200.0,Rolls,13.049313334760678,77.56207816508848
Punjab Bistro,Koramangala 7th Block,BTM,4.4,454,1500.0,North Indian,12.97334438171876,77.5113964907021
Pot Biryani,New BEL Road,Malleshwaram,3.8,154,450.0,"North Indian, Chinese, Biryani",12.978095688105222,77.59807761164132
GMT - Gelateria Montecatini Terme,Lavelle Road,Frazer Town,4.4,68,300.0,"Desserts, Ice Cream",13.019661215139203,77.67781128339098
Hyderabadi Bawarchi Biriyani,Bellandur,Sarjapur Road,3.4,4,450.0,Biryani,13.00663551875206,77.64553148201381
The Crunch,Brookefield,Marathahalli,3.3,6,300.0,Beverages,13.002062516682408,77.5898008119215
Chaat Chatore,Bannerghatta Road,Bannerghatta Road,3.1,5,300.0,Fast Food,12.906640621758273,77.61557557065001
RICE BAR,Indiranagar,Indiranagar,3.0,12,500.0,"North Indian, Biryani",12.984275388242771,77.68805666941645
Hungry Walker,Indiranagar,Indiranagar,4.0,40,400.0,"Indonesian, Thai, Vietnamese, Asian, Chinese, Continental, Malaysian",12.977094086939948,77.51629227767918
Indy's Comfort Food,Shivajinagar,MG Road,4.1,399,300.0,"North Indian, Beverages, Fast Food",13.034021489868888,77.65731620928337
Ugadi,Jayanagar,JP Nagar,2.9,177,700.0,"North Indian, Chinese, Biryani, Andhra, Mangalorean",13.016301661924814,77.5007409592644
Feast - Sheraton Grand Bangalore Hotel at Brigade...,Malleshwaram,Malleshwaram,4.3,950,2000.0,"North Indian, Continental",12.972160078651834,77.59122731062584
Roti Ghar,Basavanagudi,Basavanagudi,3.9,750,500.0,"North Indian, Chinese, South Indian",13.03337285150922,77.6493729422269
Kolkata Famous Kati Rolls,Old Airport Road,Old Airport Road,3.4,8,150.0,"Fast Food, Rolls",12.993376844326665,77.58582970417424
The Bundle Co.,MG Road,Brigade Road,4.4,222,700.0,"Burger, Continental, Italian, Beverages",13.082909732769712,77.5447913103475
Nithyothsav - Hotel Ramanashree,MG Road,MG Road,3.0,31,1000.0,"North Indian, Chinese",13.085369708632536,77.59615972577811
Pai's Kitchen,Koramangala 2nd Block,BTM,3.5,11,200.0,South Indian,12.975064269154602,77.64744065028525
Samaikya,HSR,Koramangala 5th Block,3.9,536,900.0,"Andhra, Seafood, Biryani",12.946265662461391,77.58421885683029
The Belgian Waffle Co.,Residency Road,Church Street,3.7,73,350.0,"Desserts, Beverages",13.000556688369336,77.66295690679291
Smoke-A-Pot,JP Nagar,Basavanagudi,3.6,91,500.0,"Biryani, North Indian, Rolls",12.953949922303398,77.50860683666134
Pingara,Koramangala 1st Block,Koramangala 5th Block,3.8,94,600.0,"North Indian, Chinese, Mangalorean",12.987953700777629,77.63823821733055
7 Plates,Kalyan Nagar,Kalyan Nagar,3.6,519,600.0,"North Indian, Mughlai, Rolls, Fast Food",13.066571161723584,77.63154048291145
Fish Chain,BTM,Koramangala 7th Block,4.1,58,250.0,"Seafood, BBQ, Biryani",12.942408672438592,77.62563320060781
Green Onion,Bannerghatta Road,JP Nagar,3.3,50,400.0,Chinese,12.943185120187792,77.68190730030997
Ambur Azad Darbar,BTM,Jayanagar,3.2,6,250.0,"North Indian, Fast Food, Biryani",13.090490252629277,77.63607291155743
KFC,HSR,Koramangala 6th Block,3.7,630,400.0,"Burger, Fast Food",13.091280155886682,77.56251088344067
Hattke,Sahakara Nagar,New BEL Road,3.5,27,350.0,"North Indian, South Indian",13.04429708188731,77.53112157783667
Punjab Grill,Malleshwaram,Rajajinagar,4.9,1973,2000.0,"North Indian, Mughlai",13.069857166431104,77.64375155239101
Utsav Restaurant,Bannerghatta Road,Bannerghatta Road,3.6,23,1000.0,"North Indian, Chinese, Italian, South Indian",12.926248975536478,77.68038688500924
Davangere Benna Dose Hotel,Jayanagar,Basavanagudi,4.1,90,100.0,South Indian,12.9219472397355,77.54152227311369
Sriracha,Lavelle Road,MG Road,4.3,698,1500.0,"Thai, Chinese, Indonesian, Asian, Momos",12.906825980814236,77.65952958200877
The Hungers Zone,BTM,Koramangala 7th Block,3.7,57,300.0,"Fast Food, Italian, Pizza",13.019023426164921,77.54050947573512
A1 Garam Masala,Kanakapura Road,JP Nagar,3.6,25,500.0,"North Indian, Andhra, Chinese",13.027004913228321,77.66954174364483
Fresh Bites,Koramangala 1st Block,Koramangala 5th Block,3.3,16,400.0,"Italian, Fast Food",12.991142673031366,77.62644978688729
Cupcake Noggins,HSR,HSR,4.1,106,300.0,"Desserts, Bakery",13.071826071950246,77.61913699502693
Doctor Juice,Kammanahalli,Kammanahalli,3.9,42,300.0,"Juices, Healthy Food",12.965620695168365,77.57882760082154
Somilan Steak House,Church Street,Church Street,4.3,527,800.0,"North Eastern, Asian, Naga, Steak, Momos",13.054930523958603,77.53856476345267
Kamat Minerva,Basavanagudi,Jayanagar,2.6,72,300.0,"South Indian, North Indian, Chinese",13.032106483087297,77.57123630783367
Mad Over Donuts,Malleshwaram,Rajajinagar,3.9,131,450.0,"Bakery, Desserts, Beverages",12.931356271028202,77.6064169558935
Italia - The Park Bangalore,MG Road,Lavelle Road,3.7,82,2500.0,Italian,12.960784736722653,77.6783573242585
Despiwich Dragon's Kitchen,Banaswadi,Kammanahalli,3.9,71,250.0,"Chinese, Fast Food",12.981104231040707,77.69739033726039
Behrouz Biryani,Residency Road,Residency Road,4.0,115,650.0,Biryani,13.002919744774859,77.51343637471203
Nikki's,Sadashiv Nagar,Malleshwaram,3.1,43,600.0,"Chinese, North Indian",13.043202728186568,77.58071892786518
Mayura 1989,Rajajinagar,Rajajinagar,3.7,103,900.0,"Andhra, Continental, Chinese",13.042336153932277,77.5691752113384
Daba Delights,Koramangala 4th Block,HSR,3.3,9,400.0,"North Indian, Mughlai",12.948301245371212,77.66183614134027
Gowri Sweets,Koramangala 8th Block,Koramangala 5th Block,3.3,4,300.0,"Mithai, Street Food",12.981254960111917,77.59016191514068
Sultan Rolls & Sandwiches,New BEL Road,New BEL Road,3.9,59,300.0,"Fast Food, Rolls",13.062198254611047,77.65181492154892
Monkey Bar,Indiranagar,Old Airport Road,4.3,3888,1400.0,"American, Asian, European, North Indian",13.024623897618937,77.69372575628991
Subhash Mess,New BEL Road,New BEL Road,3.7,23,200.0,North Indian,12.916363780912947,77.58782089550003
Upahara Darshini,Jayanagar,Banashankari,3.8,339,400.0,"South Indian, North Indian, Chinese",13.071297968237664,77.6053882450072
D'Brooks,Brookefield,Brookefield,3.4,8,400.0,"North Indian, Continental",12.967861053461913,77.56682572877504
Croons,Brigade Road,Church Street,3.8,26,350.0,Desserts,13.007371829300524,77.69064828266373
China Pearl,Koramangala 6th Block,Koramangala 4th Block,4.4,1854,1100.0,Chinese,12.953061274024083,77.68263646853391
Bansuri Sweets,Koramangala 6th Block,Koramangala 7th Block,3.7,73,250.0,"Mithai, North Indian, Street Food",12.942624560021113,77.60574220114975
Kulfreeze,Jayanagar,Basavanagudi,3.9,16,200.0,"Ice Cream, Desserts",12.900643652720856,77.60682732382726
Shree Mithai,Koramangala 7th Block,Koramangala 7th Block,3.3,9,150.0,"Desserts, Street Food, Mithai",13.009533646902469,77.5364373974653
MouthFull Of Cake,Basaveshwara Nagar,Rajajinagar,3.9,57,600.0,Desserts,12.981317081993161,77.52624228505613
Royal Treat,Koramangala 5th Block,Koramangala 4th Block,4.1,439,500.0,"North Indian, Chinese, Biryani",13.021746096516969,77.61860184561493
Juicemaker,Koramangala 8th Block,Koramangala 4th Block,3.9,164,400.0,"Beverages, Fast Food",12.905205909963428,77.58782688550448
Empire Restaurant,Church Street,Church Street,4.0,3213,750.0,"North Indian, Mughlai, South Indian, Chinese",13.078794611492501,77.682049475049
Gaura's Secret Recipe,Marathahalli,Brookefield,3.8,31,250.0,"North Indian, Gujarati, Rajasthani",12.941766187098919,77.6743664717986
Clove Rooftop,Jayanagar,Jayanagar,3.8,234,1000.0,"Konkan, Seafood",13.07059122273475,77.59145298504684
Daawat Restaurant Bar & Pub,Koramangala 7th Block,Koramangala 5th Block,3.5,9,700.0,"Finger Food, North Indian, Seafood, Mangalorean, Chinese",12.901590836255709,77.54028999126626
Halli Jonne Biriyani,Jayanagar,Basavanagudi,4.2,380,400.0,"Biryani, Kebab",12.922953774373843,77.68774658160868
7 Plates,Frazer Town,Lavelle Road,3.9,170,600.0,"North Indian, Mughlai, Rolls, Fast Food",12.909292295444383,77.53190492936868
Naati Biriyani,BTM,Koramangala 7th Block,3.1,4,300.0,"Kebab, Biryani",12.997365885587485,77.60623358688525
The Maori - Aurick Boutique Hotel,JP Nagar,Jayanagar,3.5,44,1000.0,"Chinese, North Indian",12.926516436036236,77.68142007228997
Gharelu Zaika,JP Nagar,Bannerghatta Road,3.7,22,250.0,North Indian,12.93077918126797,77.63497048294387
Cupcake Bliss,Domlur,Koramangala 6th Block,3.6,8,250.0,Bakery,12.961147494802924,77.51463219910521
Oregano Soul Food,Whitefield,Brookefield,4.1,142,700.0,Cafe,13.065371712194551,77.56819914455113
Hanoi - Vietnamese Cuisine,Koramangala 4th Block,Koramangala 5th Block,4.4,1808,1000.0,Vietnamese,12.95431978471608,77.54347360484373
Baskin Robbins,Whitefield,Whitefield,2.9,55,250.0,"Ice Cream, Desserts",12.910034834413187,77.62105206910924
Mad About China,Whitefield,Brookefield,3.9,146,600.0,"Chinese, Momos",13.092695989494866,77.6997219180226
Asia In A Box,Bellandur,Sarjapur Road,3.1,10,550.0,"Thai, Asian",13.001838649491585,77.57249560328118
Sagar Fast Food,Koramangala 3rd Block,Koramangala 4th Block,4.0,76,300.0,"South Indian, North Indian, Fast Food",12.922066954765041,77.58687923921468
Mr. Beans - Home Cafe,Koramangala 3rd Block,Koramangala 6th Block,4.2,2714,1000.0,"Cafe, Continental, Italian",13.055968516203864,77.50423681884257
Chatter Platter,BTM,JP Nagar,3.4,30,300.0,"Street Food, North Indian",13.077306134141033,77.62431410117425
Tasty Khaana Khazana,Bommanahalli,BTM,3.3,6,300.0,North Indian,12.914013739144238,77.65838651933569
The Cake House,Ulsoor,Frazer Town,3.7,29,300.0,"Bakery, Fast Food",12.967189230675787,77.68610520014167
Haldiram's Express,Brigade Road,Brigade Road,3.6,44,300.0,North Indian,13.001778111118211,77.5606429786601
Soup N Grill,Whitefield,Whitefield,3.5,14,600.0,"Chinese, North Indian",12.973302870737136,77.58556458975373
Bangalore Pub Exchange,MG Road,Brigade Road,4.1,209,1000.0,"Continental, Finger Food, Pizza, North Indian",13.039927913924425,77.5436333740403
Green Theory,Residency Road,Residency Road,4.2,2859,800.0,"Italian, Salad, Healthy Food, Cafe, Asian, Desserts, Pizza",13.07966568718477,77.535306869652
Sandwich Hub,Jayanagar,Jayanagar,3.4,12,300.0,"Fast Food, Sandwich",13.008706875674825,77.57897964966823
Fiero! Pizzeria,Koramangala 6th Block,Koramangala 6th Block,4.0,62,400.0,"Italian, Fast Food, Pizza",12.913600056729516,77.61474415953933
Maziga,Whitefield,Whitefield,4.7,292,1500.0,Modern Indian,12.985231665029055,77.50455368446734
Oregano Pizzeria,Frazer Town,Frazer Town,3.5,62,300.0,"Italian, Pizza",12.920589228940058,77.63194478776482
FreshMenu,Banashankari,Basavanagudi,3.9,627,450.0,"Healthy Food, Chinese, Biryani, North Indian, Continental, Salad, American, Burger",12.98617750473236,77.68298892576951
Pind Balluchi,Brigade Road,Brigade Road,4.0,1021,700.0,"North Indian, Mughlai",13.042884832814249,77.51728067209437
Latitude Whitefield,Whitefield,Whitefield,3.9,327,2000.0,"North Indian, Continental, Asian, Italian",12.933394545209438,77.6768494028181
Once Upon a Rooftop,Jayanagar,Jayanagar,4.3,1248,1000.0,"Pizza, Italian, Chinese, Thai",13.0791438349496,77.53344722575898
Ice & Spice,Frazer Town,Lavelle Road,3.0,96,650.0,"Continental, Pizza, Fast Food",13.00648406710666,77.55469395242096
Eat Repeat Express,Koramangala 5th Block,Koramangala 4th Block,3.5,10,600.0,"North Indian, Chinese, Continental",12.903943946440863,77.54558214344533
Airlines Hotel,Lavelle Road,Brigade Road,4.0,867,400.0,"South Indian, North Indian, Street Food",12.915116722770813,77.6790025513253
AQNI,New BEL Road,Malleshwaram,3.6,89,650.0,"North Indian, Mughlai, Biryani, Rolls",12.902179094605069,77.68424568250812
Karavali Kolimane,Wilson Garden,Basavanagudi,3.7,28,350.0,"Mangalorean, Chinese, North Indian",12.942408967981645,77.53484040672863
Brewz Coffee,BTM,Jayanagar,3.0,61,650.0,Cafe,12.940292299158632,77.55384456307968
KFC,HSR,Koramangala 5th Block,3.7,630,400.0,"Burger, Fast Food",12.977687387710516,77.59474268302976
#FeelTheROLL,Bellandur,Sarjapur Road,3.4,7,200.0,Fast Food,13.051067995671094,77.52893859599516
OCEA HOTEL,Brigade Road,Indiranagar,3.7,278,800.0,"North Indian, Chinese, Seafood",12.990116498563223,77.54814935848313
Sankranthi Veg Restaurant,BTM,BTM,3.0,102,600.0,"South Indian, North Indian, Chinese",12.983088600118418,77.58233752490281
Spicy Onion,Whitefield,Whitefield,3.6,30,400.0,"North Indian, Chinese",12.902034763613496,77.5865539023089
Chakum Chukum Calcutta On A Roll,Indiranagar,Old Airport Road,2.8,94,400.0,"Fast Food, Rolls",12.981847679409492,77.64169725429187
Jamavar - The Leela Palace,Old Airport Road,Old Airport Road,4.2,522,4000.0,"North Indian, South Indian",13.075052321531599,77.69542139470676
Atty's Bakery,Frazer Town,Brigade Road,4.0,73,250.0,Bakery,12.915691163263425,77.5019621793886
24 Carats - The Capitol,Cunningham Road,Lavelle Road,3.1,46,1000.0,"Asian, Continental",13.054703450454259,77.57125859206621
Sherlock's Pub,Brookefield,Marathahalli,3.3,272,1500.0,"Continental, North Indian, Chinese",13.094751861448602,77.5035114959658
Khichadiwala,HSR,BTM,3.9,15,400.0,North Indian,12.925222028335725,77.6351067286097
Tree Top,Wilson Garden,Koramangala 6th Block,3.8,75,1000.0,"Continental, Chinese, North Indian, South Indian",12.950262591745089,77.55818415008666
Egg House,Koramangala 5th Block,Koramangala 5th Block,2.9,14,400.0,"Continental, Italian, Fast Food",13.084161317401563,77.61452734131451
Delhi Restaurant,Marathahalli,Sarjapur Road,3.8,55,400.0,"North Indian, Mughlai, Chinese",13.085360673287957,77.5597556850546
Mojo Pizza - 2X Toppings,Rajajinagar,Rajajinagar,4.2,290,600.0,Pizza,13.059421004466818,77.51731080503001
Kaapi Kendra,Jayanagar,Banashankari,3.7,14,100.0,South Indian,13.082648110511293,77.59984780138834
Warm Oven,Kalyan Nagar,Kammanahalli,3.8,24,500.0,"Bakery, Desserts",13.057887679763091,77.51599076822033
The Marash,Koramangala 5th Block,Jayanagar,4.3,64,250.0,"Turkish, Desserts",12.99557813218915,77.6724763836977
Chocoberry,Jayanagar,Koramangala 7th Block,3.6,57,400.0,"Ice Cream, Desserts, Beverages",13.053117647528737,77.62138474353617
Biryani Treats,Kalyan Nagar,Kammanahalli,2.6,45,650.0,Biryani,13.093780343422807,77.51569180010817
Churrascaria Brazil,Kammanahalli,Kalyan Nagar,4.1,111,1400.0,European,13.027460965285664,77.56971570312085
Silsila Restaurant,Sarjapur Road,Bellandur,3.7,31,600.0,"Chinese, North Indian",13.07311542912491,77.63171527363264
Hot & Cold Hut,Koramangala 4th Block,Koramangala 7th Block,3.0,46,200.0,"Fast Food, Rolls, Juices",13.001800924312413,77.68648726389269
Dadi's Dum Biryani,BTM,Koramangala 4th Block,4.1,2727,800.0,"Biryani, North Indian, Mughlai",12.98261086959068,77.68695013625194
Danny Lambas Punjabi Dhaba,Indiranagar,Brigade Road,3.5,98,600.0,"North Indian, Chinese, Biryani",12.965348508406008,77.55589103106402
Roomali,Church Street,Brigade Road,4.0,171,1300.0,North Indian,12.906348753074598,77.6620725745095
Occasions,Koramangala 4th Block,Koramangala 6th Block,4.3,190,400.0,"Bakery, Desserts",13.097912656365828,77.5357723322445
Abhiruchi Hotel,BTM,Koramangala 4th Block,3.5,738,600.0,"Andhra, Biryani, Chinese, North Indian, Seafood, South Indian",12.994330560265677,77.6818154552861
Kopper Kadai,Koramangala 5th Block,BTM,4.1,1697,1200.0,"North Indian, Chinese",12.953358909886767,77.55932825838508
Maratha Darshan,Cunningham Road,Lavelle Road,4.0,108,400.0,"Maharashtrian, North Indian",12.931832039544446,77.53513000403821
Chetty's Corner,Koramangala 7th Block,Koramangala 7th Block,3.8,35,250.0,"Fast Food, Pizza, Sandwich",13.085693730479031,77.65143727221815
Empire Restaurant,BTM,Koramangala 7th Block,3.8,106,400.0,"Kerala, Seafood, South Indian, Chinese, North Indian, Charcoal Chicken, Beverages",13.095022901409145,77.6009719501945
Donne Biryani Hatti,Vasanth Nagar,Church Street,3.6,27,300.0,Biryani,12.97307336831013,77.54379242499758
Cake Menu,Marathahalli,Marathahalli,3.5,30,400.0,Bakery,13.045233283939831,77.52639780471101
ReadyBowl,BTM,Koramangala 7th Block,3.7,69,400.0,"Andhra, South Indian, North Indian, Biryani",12.94616234627199,77.62551828002489
R횄혘횂혘횄혗횂혘횄혘횂혗횄혗횂혘횄혘횂혘횄혗횂혗횄혘횂혗횄혗횂혘횄혘횂혘횄혗횂혘횄혘횂혗횄혗횂혗횄혘횂혘횄혗횂혗횄혘횂혗횄혗횂짧veur Chocolates,Koramangala 4th Block,Koramangala 7th Block,3.7,13,400.0,Desserts,12.978243633008285,77.54860722807479
Brimstone Cafe,HSR,Bellandur,4.0,387,1300.0,"Cafe, Continental, Salad, Italian",13.024132095964916,77.66104645536997
Just Shawarma,New BEL Road,Malleshwaram,3.8,179,300.0,Arabian,13.068271919791867,77.68995534017722
Sri Udupi Grand,Shanti Nagar,MG Road,3.2,9,350.0,"South Indian, North Indian, Chinese",13.098034561083686,77.61974662247007
Polar Bear,JP Nagar,BTM,4.2,220,400.0,"Desserts, Ice Cream, Beverages, Sandwich",13.078493818790403,77.62087810244219
Manchow,Bellandur,Bellandur,3.8,157,600.0,"Chinese, Asian, Momos",13.09430653818021,77.5515409664219
The Courtyard,Shanti Nagar,Lavelle Road,3.9,300,750.0,"Cafe, Italian",13.026081303712209,77.65534276058885
Assi Tussi Lassi,Ejipura,Indiranagar,3.6,25,200.0,"Beverages, Fast Food, Ice Cream",12.920896479061566,77.58901971457948
Juice Fresco,Nagawara,Kalyan Nagar,3.3,15,150.0,Beverages,13.09919821018922,77.67847397964508
Kerala Pavilion,Domlur,Indiranagar,3.9,302,300.0,"Kerala, South Indian, Seafood, Biryani",13.080449124619246,77.57332063342251
New Krishna Sagar,Indiranagar,Indiranagar,3.3,26,300.0,"South Indian, North Indian, Chinese",12.919986375410883,77.60174970658974
Friends Diner,Whitefield,Whitefield,2.8,36,700.0,"Continental, Italian, Pizza",13.017270493565027,77.57247287666709
Rayalaseema Chefs,Marathahalli,Bellandur,3.9,225,800.0,"North Indian, Biryani, Andhra, Chinese",13.058915655740037,77.59525083384298
Hyderabad Cuisine,"Varthur Main Road, Whitefield",Brookefield,2.8,70,650.0,"Seafood, Biryani, Hyderabadi, North Indian",13.09545598651329,77.66580808069423
Alibi - Maya International Hotel,Church Street,Lavelle Road,1.8,225,1200.0,"North Indian, Continental, Chinese",12.946714179609348,77.68001175955044
Veg Rasoi,HSR,Bellandur,3.9,92,600.0,"North Indian, Rajasthani",12.972370618641028,77.56705913079219
ReFresh Juice Junction,Koramangala 1st Block,Koramangala 5th Block,4.1,57,200.0,"Juices, Fast Food",13.055872653009544,77.50498650693301
Treat,Whitefield,Whitefield,3.8,63,800.0,"North Indian, Mughlai",13.038670969979822,77.58446354807272
Burger King,Indiranagar,Church Street,4.0,1393,600.0,"Burger, Fast Food, Beverages",12.955578225197552,77.5191371563133
99 Pancakes,Koramangala 5th Block,Koramangala 6th Block,4.5,345,300.0,"Desserts, Cafe",13.051562661138853,77.65396113201965
Chai Ki Tapri,MG Road,Residency Road,3.7,16,250.0,Cafe,12.90544568246737,77.51175768388913
Krispy Kreme,Kalyan Nagar,Kammanahalli,3.9,87,300.0,"Desserts, Beverages",12.99424733745833,77.57358447705607
Dolci Desserts,Cunningham Road,MG Road,4.3,657,750.0,"Cafe, Desserts",13.051682038085412,77.60128191513506
Ambara Gardenia,Bannerghatta Road,JP Nagar,3.8,256,800.0,"Andhra, North Indian, Chinese, Seafood",13.05582083746773,77.5174420801838
Ammus Hot N Cool,BTM,Koramangala 7th Block,3.4,84,300.0,"North Indian, Fast Food, Kebab, Rolls, Beverages",12.944738552952943,77.59622923028293
Cafe Jezve,Bellandur,Bellandur,4.0,23,500.0,Cafe,12.915881316928607,77.68068865804311
Cake Art,Basavanagudi,Banashankari,3.5,15,400.0,Bakery,13.045191135774047,77.63228059850535
Quench The Juice Lounge,Jayanagar,BTM,3.6,18,150.0,"Beverages, Juices, Ice Cream",12.957041160536082,77.5489636694524
Maddy's Katti Cafe,Rajajinagar,Rajajinagar,3.2,71,400.0,"Fast Food, Beverages",13.048227103074094,77.63237145570369
Peppers,Ejipura,Koramangala 7th Block,2.8,94,300.0,"North Indian, Chinese",12.917915267458886,77.57288942421563
Muthashy's,BTM,Koramangala 7th Block,4.2,472,400.0,"Kerala, South Indian, Chinese",13.018802540181616,77.5716398241087
Fill N Chill Resto Bar & Pub,Koramangala 4th Block,Koramangala 4th Block,3.9,597,1200.0,"Finger Food, North Indian, Chinese",12.978732682811128,77.68397957384776
Sri Ganesh Juice Junction,Koramangala 8th Block,Koramangala 5th Block,4.1,212,150.0,"Beverages, Juices, Fast Food",13.052505135418794,77.62218755728593
Kaizen Wellness Kitchen,JP Nagar,Jayanagar,3.7,37,800.0,"Asian, Continental, European",12.911759203308927,77.51068901390012
Y Not Restaurant,JP Nagar,Bannerghatta Road,3.1,4,300.0,Fast Food,13.092214063493891,77.55736451519205
Chickpet Donne Biriyani Mane,Kalyan Nagar,Kammanahalli,3.0,16,350.0,"Biryani, Kebab",13.089445405469341,77.53352909607261
Arina's,Frazer Town,Frazer Town,3.3,5,250.0,"Fast Food, Chinese",12.997211508380536,77.59862735368917
Shaadi Ki Biryani,Commercial Street,Brigade Road,2.8,296,600.0,Biryani,12.954814317868438,77.5716646524264
Pathy's Kitchen,Indiranagar,Koramangala 4th Block,3.5,21,500.0,Andhra,13.068958072057912,77.57885698438312
MiniMelts,Brigade Road,MG Road,3.9,66,200.0,Ice Cream,12.94292950975404,77.65958975034063
Happy Fillings,Ulsoor,Church Street,3.4,8,300.0,Chinese,12.966820930417313,77.61755489803379
Hotel Reddy Bhavan,HSR,Koramangala 6th Block,3.4,11,300.0,"Biryani, North Indian, Chinese, Andhra",13.066152173362646,77.5255737154327
Subway,JP Nagar,JP Nagar,4.0,273,600.0,"Salad, Fast Food",12.985277978953885,77.58639412689999
Garden Kabab Corner,Yeshwantpur,Malleshwaram,3.4,7,200.0,"North Indian, Chinese",12.986319082119534,77.60668409818066
Kalingas,BTM,Bannerghatta Road,3.9,173,250.0,"Oriya, Fast Food",12.951648877659792,77.61748605737718
Sri Lakshmi Curries & Pickles,JP Nagar,JP Nagar,2.9,60,400.0,"Andhra, Biryani",12.954000999293003,77.55930159805841
Parika Multicuisine & Coastal Fine Dine,HSR,HSR,3.9,601,1000.0,"Mangalorean, Seafood, North Indian, Chinese",12.918227467817943,77.63028804631637
HungerLoft,BTM,Koramangala 5th Block,2.5,109,800.0,"North Indian, Chinese, Arabian",13.063469264676558,77.67995168126436
Anda Ka Funda,BTM,Koramangala 5th Block,3.2,64,250.0,"North Indian, Chinese, Rolls",13.095644733716275,77.52130546675255
Amma's Pastries,Ulsoor,Church Street,4.0,98,400.0,Bakery,12.931305842683148,77.69409298422858
Mantap Ice Cream,Majestic,Lavelle Road,3.5,7,200.0,Desserts,13.03221675345377,77.52508527600416
Chung Wah,Banashankari,Basavanagudi,3.9,519,900.0,"Chinese, Momos, Thai, Vietnamese",13.003135885539299,77.50714709117605
Srinathjis,Banaswadi,Kalyan Nagar,3.6,62,550.0,"North Indian, Cafe, Chinese",13.003663023040504,77.64596458376622
L J Iyengar Bakery,Bannerghatta Road,JP Nagar,3.2,6,100.0,Bakery,12.943496870772595,77.63406555905709
BMR Hyderabad Biryani,BTM,Koramangala 4th Block,3.6,24,400.0,Biryani,13.091864780901643,77.58580451849785
Chef Master,Jayanagar,Basavanagudi,3.8,75,300.0,"Kerala, North Indian, Chinese",12.9676535011989,77.53251811115625
Donne Biriyani Angadi Mane,Sadashiv Nagar,Malleshwaram,3.4,83,250.0,"Biryani, Chinese",13.025260466481347,77.67331503851804
Regale Restaurant,Marathahalli,Marathahalli,3.6,68,350.0,"North Indian, Chinese",12.990646433019986,77.67009038008099
Bite Me Cupcakes,Koramangala 4th Block,BTM,4.1,189,300.0,Desserts,12.907118046161296,77.6688357017009
Ammi's Biryani,Bellandur,Bellandur,2.8,43,500.0,"Biryani, North Indian",12.95892387926924,77.57990171865744
Grills And Tandoor,Koramangala 5th Block,Koramangala 7th Block,3.7,114,900.0,"North Indian, Chinese",12.911695852723183,77.54859558102419
Fujian Express,HSR,Koramangala 5th Block,3.2,16,200.0,"Chinese, Thai, American, Momos",13.046864681643704,77.62831942121048
Tandoor Merchant,BTM,Koramangala 5th Block,3.4,24,500.0,"North Indian, Chinese, Fast Food",13.010267508539815,77.62719233599812
Friend's Kitchen,BTM,BTM,3.5,10,150.0,"South Indian, Chinese",12.966809109683991,77.60485271749114
Momo Hut,Koramangala 5th Block,Koramangala 4th Block,4.0,684,250.0,"Chinese, Tibetan, Momos",13.041878149050225,77.57843426914444
Kava - Fairfield by Marriott,Bellandur,Sarjapur Road,3.9,291,1500.0,"North Indian, South Indian, Continental",12.916112159880996,77.66939631624342
Bhojohori Manna,JP Nagar,Bannerghatta Road,3.7,662,650.0,"Bengali, Mughlai",13.097992046477989,77.63069901394292
S.W.A.T Food Truck,East Bangalore,Old Airport Road,3.7,217,450.0,"American, Fast Food",12.943936576725054,77.56911721784803
Punjabi Tadka,Whitefield,Whitefield,3.2,4,500.0,North Indian,12.938625448764544,77.52555002046394
Mustard Food Court,Koramangala 3rd Block,BTM,3.6,163,500.0,"North Indian, Chinese",13.023324395633056,77.6754121365172
Eshanya,Jayanagar,JP Nagar,4.1,1080,1000.0,"North Indian, Chinese",13.084635205691265,77.62615570745253
Ganache - The Ritz-Carlton,Residency Road,Residency Road,3.9,51,600.0,Bakery,12.969299777904064,77.69849888515779
Mini Forest,JP Nagar,Bannerghatta Road,3.3,6,500.0,"Fast Food, Desserts",12.954843040469735,77.64688218593415
On The Nose,Koramangala 5th Block,Koramangala 6th Block,2.7,26,600.0,"Cafe, Italian, Mexican, Chinese",13.018535613182749,77.51015254176271
New Ambur Dum Biryani,Koramangala 1st Block,Koramangala 5th Block,3.2,7,200.0,"Biryani, Kebab",12.902626674741986,77.52928491670585
New Chickpete Donne Biryani,Basavanagudi,Basavanagudi,3.5,68,250.0,Biryani,12.923273279577096,77.6873691192569
Eat Repeat,Basavanagudi,Banashankari,3.9,101,150.0,South Indian,12.905070148683091,77.61222661127178
Shaadi Ki Biryani,Commercial Street,Frazer Town,2.8,296,600.0,Biryani,13.088818957186072,77.56031887504321
Taipan,Frazer Town,Residency Road,3.5,129,700.0,"Chinese, Momos",13.055924227187077,77.52825587692756
BOX8- Desi Meals,Whitefield,Brookefield,4.2,78,500.0,"North Indian, Mughlai, Fast Food",13.096113645412144,77.57976311797188
Juice Junction Food Court,HSR,Bellandur,3.8,210,200.0,"Juices, South Indian, Chinese, Fast Food",13.035733991334514,77.68649708535332
Bombay Kulfi,JP Nagar,JP Nagar,3.7,41,150.0,"Desserts, Ice Cream",12.986340595731283,77.67071586881337
Intriicake,HSR,Koramangala 6th Block,3.8,34,350.0,"Bakery, Desserts, Italian, North Indian, Fast Food",12.977311574746299,77.56012211657423
Pizza Stop,Lavelle Road,Church Street,3.5,73,600.0,"Pizza, Italian",12.91729150142403,77.59723446122574
All Shook Up!,Domlur,Indiranagar,3.9,77,300.0,"Desserts, Beverages",12.906687597112219,77.69373739289257
Gongura,Whitefield,Whitefield,2.6,51,500.0,"Andhra, North Indian, South Indian",13.05938911272433,77.59854693481614
Frozen Bottle,Infantry Road,MG Road,3.7,19,400.0,"Beverages, Desserts, Ice Cream",13.061280072026266,77.61074268582469
Bhukkad,Electronic City,Electronic City,3.3,7,250.0,"Healthy Food, Fast Food",12.943362855185821,77.60873346831167
Gilly's Restobar,Koramangala 5th Block,Koramangala 4th Block,4.5,3909,1000.0,"Finger Food, Continental, North Indian",13.03207728805427,77.57627044376525
Candy Cake,BTM,BTM,3.4,6,500.0,Bakery,12.982228867295998,77.68749933050086
Al Swaad Take Away,Richmond Road,MG Road,3.1,13,350.0,"North Indian, South Indian, Arabian",12.981192291267918,77.66272414324307
Samarkand,Infantry Road,Frazer Town,4.1,2047,1600.0,"North Indian, Mughlai",13.079559161278405,77.59989447406275
Little White Kitchen,Brigade Road,Frazer Town,3.8,20,200.0,"Chinese, Continental, North Indian, Italian",13.00488726917155,77.52857465187164
A 1 Pizza and Food,Old Airport Road,Koramangala 4th Block,2.8,213,300.0,"Pizza, Chinese, North Indian",13.071884518172261,77.58149372604449
Mangalore pearl - Seafood Restaurant,Ulsoor,Brigade Road,4.3,94,550.0,"Mangalorean, Seafood",13.04091088560549,77.51468241871488
Smally's Resto Cafe,Indiranagar,Old Airport Road,4.1,427,650.0,"Cafe, Italian, Burger, American, Steak",13.031594915053041,77.67017392174483
Mars Chicken Delight,Koramangala 1st Block,Koramangala 7th Block,3.7,107,500.0,"North Indian, Chinese, Biryani, Beverages",12.941893686361047,77.68846532021541
Imperial Restaurant,Residency Road,Lavelle Road,3.9,366,800.0,"North Indian, Chinese, Mughlai, Seafood",13.016739316560683,77.68197031788776
Pappu Chaiwalla,BTM,BTM,3.1,89,350.0,"North Indian, Momos, Rolls, Fast Food",13.060480356890265,77.56939993593772
Mint Masala,Infantry Road,Brigade Road,2.8,253,1000.0,"North Indian, Chinese",13.024482728313199,77.51929263082897
Sri Maruthi Miltry Hotel,Rajajinagar,Malleshwaram,3.8,94,300.0,South Indian,12.95640051388524,77.62210967133787
Tanna's Kitchen,Kumaraswamy Layout,JP Nagar,3.1,7,250.0,"Italian, Chinese, Street Food",12.9227109087687,77.5823962412297
Coorg Diaries,Kaggadasapura,Marathahalli,3.5,129,400.0,South Indian,12.936676766698747,77.68723149629139
Reddy's Restaurant,Bellandur,Bellandur,3.4,6,500.0,"Andhra, Biryani, South Indian, Chinese",13.069393770841412,77.6293286257808
New Shanthi Sagar,Sadashiv Nagar,Malleshwaram,2.7,39,550.0,"South Indian, North Indian, Chinese, Beverages",13.01144971032371,77.6336590370056
Night Panda,JP Nagar,BTM,2.9,39,500.0,"Fast Food, North Indian, Chinese",12.935178056683732,77.58229321325017
Karavali Grand,Koramangala 5th Block,Koramangala 4th Block,3.7,26,600.0,"Mangalorean, Seafood, North Indian, Chinese",12.901042503695386,77.68337973932366
Khan Saheb Grills And Rolls,Sarjapur Road,HSR,3.2,135,400.0,"Biryani, Fast Food, Rolls",13.05457478727637,77.62625286720217
Big Wong XL,Koramangala 5th Block,Koramangala 4th Block,4.5,684,1400.0,"Chinese, Sushi, Asian, Thai",12.992645927481806,77.59852550646009
Savoury - Sea Shell Restaurant,BTM,HSR,3.9,467,550.0,"Arabian, North Indian, Chinese, Fast Food",12.983626319958725,77.59255021632596
Rajdhani Thali Restaurant,JP Nagar,Koramangala 7th Block,3.9,891,900.0,North Indian,13.087684370419753,77.64214193245175
California Burrito,Koramangala 5th Block,Koramangala 5th Block,4.1,1227,400.0,"Mexican, Fast Food",13.00547870281757,77.64427717582181
Chai Point,Brookefield,Brookefield,3.9,130,250.0,"Tea, Beverages, Fast Food",12.909672542209757,77.51758888496109
C. K. Mega Hot Food,BTM,Koramangala 7th Block,4.0,103,600.0,"Chinese, Momos",13.096493769157338,77.5218065974839
Hotel Godavari,BTM,Jayanagar,3.9,222,500.0,"Andhra, Chinese, North Indian, Biryani",12.910826881680464,77.55829648620835
Navab's,Koramangala 4th Block,Koramangala 4th Block,3.6,9,600.0,Mughlai,12.912073168703012,77.60519780285924
M Bar - Bengaluru Marriott Hotel Whitefield,Whitefield,Whitefield,3.9,77,2000.0,Finger Food,12.973587722335523,77.5316675011079
Cafe Hush,BTM,Jayanagar,3.6,22,500.0,"Cafe, Fast Food",13.09519662387849,77.52293631573134
Naidoo's Donne Biryani,Kammanahalli,Kalyan Nagar,3.5,13,300.0,"South Indian, Biryani",13.07054599305571,77.62177777708143
Johnny Fox,Hosur Road,BTM,3.9,66,1500.0,"North Indian, Chinese",13.037335722344826,77.51590306083288
The Trundle,Jayanagar,Banashankari,3.7,133,700.0,"Chinese, Thai, Continental, North Indian",13.04039337545154,77.58391981843533
Gam's Delicacy,Koramangala 7th Block,Koramangala 4th Block,4.2,325,800.0,"North Indian, Chinese, Assamese",13.098145011049521,77.59700772183088
Momscurry,East Bangalore,Old Airport Road,2.7,19,300.0,North Indian,12.924346913793851,77.62866962920909
The Rice Bowl,Lavelle Road,Brigade Road,4.3,500,1300.0,"Chinese, Momos",12.981934210675199,77.570332182624
Alibaba Cafe and Restaurant,Kalyan Nagar,Kammanahalli,2.9,55,700.0,"Arabian, Middle Eastern",13.052100400883448,77.53803484519905
The Sugar Therapy,Richmond Road,MG Road,3.8,26,500.0,"Desserts, Bakery",12.987417173191885,77.53666214861066
Gelato Italiano,Kammanahalli,MG Road,3.2,4,200.0,"Ice Cream, Desserts, Bakery",12.978500402454044,77.65024883958765
Pizza Da Dhaba,Bannerghatta Road,Bannerghatta Road,3.2,8,400.0,"Fast Food, Pizza",12.928499108580302,77.69035493211814
Restro Cafe,Jayanagar,Bannerghatta Road,3.8,30,400.0,Cafe,13.085550456639043,77.69834325838178
Bakewalk,Wilson Garden,Koramangala 7th Block,3.3,4,200.0,"Bakery, Arabian",12.942898774877877,77.58201643175454
Chianti,MG Road,Lavelle Road,4.5,302,1500.0,Italian,13.090577522576972,77.66721386125862
Art of Delight,Koramangala 5th Block,Koramangala 6th Block,4.3,450,400.0,"Ice Cream, Desserts, Beverages",12.960999103660537,77.66722132685109
Kavya Sagar,Richmond Road,Church Street,2.9,10,250.0,"South Indian, North Indian",12.904068216376436,77.52781506760414
Oh! Calcutta,Church Street,Church Street,4.4,1112,1200.0,"Bengali, Seafood",13.03014487686676,77.61677256062572
Amande Patisserie,Basavanagudi,Banashankari,4.0,73,300.0,"Bakery, French, Desserts",13.023170019610443,77.52575575109549
Shree Muthahalli Veg,HSR,Koramangala 4th Block,4.2,848,300.0,"South Indian, North Indian, Chinese, Juices, Ice Cream",13.005360583771187,77.65299012263212
Kaz횄혘횂혘횄혗횂혘횄혘횂혗횄혗횂혘횄혘횂혘횄혗횂혗횄혘횂혗횄혗횂짤,Lavelle Road,Brigade Road,4.4,858,3000.0,"Asian, Japanese, Thai",13.023905240007261,77.51437797280623
Black Jack,New BEL Road,New BEL Road,3.7,318,1400.0,"North Indian, Chinese",12.980247290792626,77.50467286036665
WAFL Caf횄혘횂혘횄혗횂혘횄혘횂혗횄혗횂혘횄혘횂혘횄혗횂혗횄혘횂혗횄혗횂짤,Residency Road,Church Street,4.0,85,400.0,"Cafe, Fast Food, Desserts, Beverages",13.007618932824222,77.55847736446285
Chaatimes,JP Nagar,Jayanagar,3.8,101,200.0,"Street Food, Fast Food",13.088466898987008,77.59784530209801
Chai Point,Indiranagar,MG Road,4.3,179,250.0,"Fast Food, Beverages",12.968168371015613,77.50222180619014
Hang10 Resto N Cafe,BTM,JP Nagar,3.8,100,700.0,"Cafe, North Indian, Chinese",13.04874736299049,77.62190763062759
Bengaluru Cafe,Sanjay Nagar,New BEL Road,3.3,4,150.0,South Indian,13.08249499714387,77.55697935142554
Hotel Karavali,Jeevan Bhima Nagar,Old Airport Road,3.7,264,450.0,"Biryani, North Indian, Mangalorean, Seafood",12.931812768123637,77.50707242213764
Home Treat,Brigade Road,Brigade Road,3.1,7,150.0,North Indian,13.038414729404874,77.55351343995855
Classic Shop,BTM,Koramangala 5th Block,3.8,11,150.0,"Beverages, Juices",13.083038742284913,77.57499706258727
Asha Sweets Centre,Basavanagudi,Jayanagar,3.6,28,250.0,"Mithai, Street Food",13.006837978361723,77.69459240005871
Kebarbiq,Koramangala 7th Block,Koramangala 6th Block,4.0,138,800.0,"North Indian, Arabian, Mughlai, Middle Eastern, Grill",13.0225322494304,77.57765519594122
Spar Refresh,Bannerghatta Road,Bannerghatta Road,3.4,5,300.0,"North Indian, South Indian, Pizza",12.978498711281338,77.5550905944493
Tangerine - Davanam Sarovar Portico Suites,Koramangala 2nd Block,Jayanagar,4.0,150,1100.0,"Continental, Italian, North Indian, Asian, Bakery, Chinese, European, Japanese",12.940339992526205,77.61715917445767
Cafe Coffee Day,Bellandur,Bellandur,3.1,48,900.0,"Cafe, Fast Food",13.063812702772331,77.5157189538232
Imperial Restaurant,Shivajinagar,Frazer Town,2.9,238,800.0,"North Indian, Chinese, Biryani, Kebab, Juices",12.938257831339303,77.55094740574683
FoodandSnack.com,Bommanahalli,HSR,3.3,8,500.0,"South Indian, North Indian",13.011768174190934,77.53563066624923
Swad Restaurant,BTM,Koramangala 7th Block,3.7,114,500.0,"North Indian, Chinese",12.92195557901148,77.59259023356142
Dakshin Cafe,JP Nagar,JP Nagar,4.1,140,100.0,South Indian,12.993960415139536,77.67611909856396
Puran da Dhaba - The Pride Hotel,Richmond Road,Residency Road,4.0,167,1700.0,North Indian,13.004310890480598,77.64361330215107
Kirthi's Biryani,Banashankari,Jayanagar,3.8,145,700.0,"Chinese, Cafe, Italian",13.077728533872591,77.57052199662522
Lucknowi Dabba,Koramangala 1st Block,Koramangala 6th Block,3.7,21,300.0,"Mughlai, Chinese, North Indian",13.041771422640855,77.63237585563296
Memories of China - Taj MG Road Bengaluru,MG Road,Lavelle Road,4.3,454,3000.0,"Chinese, Momos",13.02600894412827,77.5754454129716
KFC,Electronic City,Electronic City,3.5,154,450.0,"Burger, Fast Food",12.992970956162655,77.55658269794985
Fabcafe,Jayanagar,Jayanagar,3.5,11,800.0,"Cafe, Healthy Food",12.910624124839801,77.57125166808223
Rosewood International Hotel - Bar & Restaurant,Mysore Road,Banashankari,3.6,8,800.0,"North Indian, South Indian, Andhra, Chinese",12.91161672243364,77.62443971713502
Cookie Man,Whitefield,Whitefield,3.2,5,150.0,Bakery,12.935184585866057,77.58993343089577
FreshPhulka,HSR,Sarjapur Road,3.8,24,150.0,North Indian,12.914043184572146,77.53297980630923
Sufi Restaurant & Cafe,Banaswadi,Kammanahalli,3.8,107,800.0,"Iranian, Mughlai, Chinese",13.055194781749977,77.53667105893484
Zanzibar - Davanam Sarovar Portico Suites,BTM,BTM,3.5,39,1200.0,Finger Food,12.990991375945548,77.64577833562595
OCEA HOTEL,Brigade Road,Residency Road,3.7,281,800.0,"North Indian, Chinese, Seafood",12.913054399713698,77.67642028473759
Mikusu - Conrad Bengaluru,Ulsoor,MG Road,4.2,82,3000.0,"Japanese, Chinese, Thai",13.027222411440588,77.66264893419854
Asia Kitchen By Mainland China,Koramangala 5th Block,Koramangala 7th Block,4.9,2249,1500.0,"Asian, Chinese, Thai, Momos",13.001546192802447,77.50922725175701
Churn,New BEL Road,Malleshwaram,4.2,58,250.0,"Desserts, Ice Cream",12.91459654294619,77.57551018573285
Chickpet Donne Biriyani Mane,Nagawara,Kammanahalli,2.7,37,150.0,"Biryani, South Indian, Kebab",12.963770361787317,77.56023130019534
Blue Wings Bar & Restaurant,Banashankari,Banashankari,3.7,43,700.0,"North Indian, Chinese",12.970183002510415,77.608544659741
Reddy's Restaurant,HSR,BTM,3.7,141,500.0,"Andhra, Biryani, South Indian, Chinese",13.055359687441726,77.68889840922101
Cafe Nibras,Banaswadi,Kammanahalli,3.4,11,400.0,"Cafe, Continental",12.991302351344357,77.62224973090463
Mother Nature Kulfi,Jayanagar,JP Nagar,3.6,10,200.0,"Desserts, Ice Cream",12.974234824137822,77.66921353757509
Feast India Co.,Cunningham Road,MG Road,4.2,138,1500.0,"Awadhi, Bengali, North Indian",13.08370203013771,77.52103771917312
The Dining Table - Sahar Pavillion,Electronic City,Electronic City,3.7,74,1500.0,"Chinese, Continental, North Indian, Pizza, South Indian",12.913165968672631,77.64687180899396
#L-81 Cafe,HSR,Koramangala 5th Block,3.9,48,400.0,"Fast Food, Beverages",12.945973918240451,77.54868136520822
Taco Bell,Bannerghatta Road,Jayanagar,4.0,910,600.0,"Mexican, American, Fast Food",12.991189237153732,77.51379727848405
Tapri By The Corner,Koramangala 5th Block,BTM,4.1,205,250.0,Fast Food,12.924072715241998,77.67093562323227
Sri Rajalakshmi Sweets,Marathahalli,Brookefield,3.6,22,300.0,"Mithai, Street Food",12.946762566618613,77.52651897094567
Blue Tokai Coffee Roasters,Koramangala 8th Block,Koramangala 4th Block,4.0,67,400.0,"Cafe, Coffee",12.950709955186381,77.55997268994793
Vyanjan,BTM,Koramangala 5th Block,3.9,203,300.0,"North Indian, Street Food",13.097917414828133,77.6656561637377
Spicy Restaurant,Vasanth Nagar,Church Street,3.0,25,400.0,"North Indian, Chinese",13.011174162839792,77.61661553875174
Kabab Mehal,JP Nagar,BTM,3.7,66,400.0,"Kebab, North Indian, Fast Food, Beverages",13.005731320797855,77.65587857013634
Kaati Zone,Marathahalli,Brookefield,3.3,184,350.0,"Fast Food, Biryani, Rolls",12.986246773958312,77.5148804115457
Potful,Sarjapur Road,Sarjapur Road,4.0,856,650.0,"Biryani, Kebab, Rolls, Mughlai",13.00839295748522,77.58793507430438
The Restaurant - Coorg,Indiranagar,Indiranagar,4.3,504,1100.0,South Indian,12.918657476944395,77.62455788950064
Cafe Medley,Koramangala 5th Block,Koramangala 7th Block,4.2,1067,800.0,"Cafe, Continental, Burger",13.03697366800537,77.56817930701658
Sangam Sweets,Koramangala 3rd Block,Koramangala 7th Block,3.8,75,200.0,"Mithai, Street Food",12.977213586690345,77.58291530114548
Priya Juice & Snacks,HSR,HSR,3.7,74,200.0,"Beverages, Juices",13.034703357363451,77.6847097465907
Old Mumbai Ice Cream,Basavanagudi,Jayanagar,3.8,41,150.0,Ice Cream,12.93330911771876,77.55339387838775
Roots,Koramangala 1st Block,Koramangala 4th Block,4.5,1888,1200.0,"North Indian, South Indian, Chinese, Continental, Mangalorean",13.04406485546528,77.66505948220387
Sri Rama,Shivajinagar,Church Street,3.2,4,200.0,South Indian,12.990683246124854,77.69853659041674
Biggies Burger 'n' More,BTM,Jayanagar,3.8,208,400.0,"Cafe, Burger, Fast Food",12.914831821154806,77.67313477647089
Ronnie's Kitchen,Koramangala 5th Block,Koramangala 7th Block,3.1,12,200.0,Chinese,12.943756136452539,77.51122930441103
Rajathadri Food Fort,Jayanagar,Jayanagar,4.0,469,600.0,"South Indian, North Indian, Chinese, Street Food",13.097978432447974,77.64462480616662
Sintales,Sarjapur Road,Sarjapur Road,3.6,44,600.0,"Cafe, Continental, Pizza, Burger, Beverages",13.039993202420924,77.50787642465464
The Chennai Express,Indiranagar,Indiranagar,3.8,166,200.0,"South Indian, Chinese",12.952042273587152,77.61362751596488
Indian Spice Food,Ulsoor,Church Street,3.7,24,300.0,"North Indian, Chinese",12.992870049976428,77.62468997906113
Chakh Le india,Bommanahalli,HSR,3.2,6,250.0,"North Indian, Chinese",12.999163894529708,77.60527070188203
Hotel Nisarga Restaurant,Whitefield,Whitefield,3.2,6,300.0,"Chinese, North Indian",13.028357259540961,77.57998356991871
Kannur Food Point,BTM,BTM,4.0,137,200.0,"Kerala, North Indian",12.952539095400388,77.57499476722975
Kaati Zone,Marathahalli,Marathahalli,3.3,184,350.0,"Fast Food, Biryani, Rolls",12.980127408837605,77.62963220334674
Little Lucknow,Koramangala 5th Block,Koramangala 7th Block,4.0,238,800.0,"Mughlai, North Indian",12.972565744945374,77.61888714018929
Food Town,Indiranagar,Old Airport Road,3.2,5,200.0,Chinese,13.041440174589805,77.63277621193276
Graffitea,BTM,Koramangala 5th Block,3.7,16,200.0,"Beverages, Fast Food",12.948699051837037,77.5761127426772
ROYCE' Chocolate,MG Road,Indiranagar,3.5,6,1000.0,Desserts,13.037273321315736,77.50261395461177
Kanteen 038,Indiranagar,Residency Road,3.9,54,200.0,"Tea, Beverages, Fast Food",13.06232706399294,77.63582398449893
Sagar Chats,Commercial Street,MG Road,3.8,38,300.0,"Chinese, Beverages, Street Food",12.985504430912052,77.52574622233762
IceBreakers,Church Street,Church Street,4.3,182,400.0,"Desserts, Ice Cream",13.012428950765518,77.68186056622324
Peppers,Ejipura,Koramangala 5th Block,2.8,94,300.0,"North Indian, Chinese",13.046207151665662,77.67602736029205
Sri Bhagya Grand,Bannerghatta Road,BTM,3.4,185,450.0,"South Indian, North Indian, Chinese, Street Food, Beverages",13.092546516772227,77.61958193506575
Owl's Kitchen,BTM,BTM,3.1,44,500.0,"North Indian, Chinese",12.920862617470377,77.53140048227154
Puran da Dhaba - The Pride Hotel,Richmond Road,Church Street,4.0,164,1700.0,North Indian,13.067258262620491,77.59370363268101
Kenny's Restaurant,Frazer Town,Frazer Town,3.6,31,450.0,"Chinese, North Indian",12.90806504794419,77.5453021084939
Nellore Mess & Tiffens,Whitefield,Brookefield,3.5,16,200.0,"South Indian, Andhra",13.07560670256889,77.57068184484646
Biryani Junction,Bommanahalli,Koramangala 4th Block,2.3,298,450.0,"Biryani, North Indian, Chinese",12.976371525044367,77.63354341032837
Subham Pal Kitchen,Koramangala 1st Block,Koramangala 4th Block,3.3,10,300.0,"North Indian, Chinese",12.93742168458345,77.6359344534082
The Beer Cafe,Koramangala 4th Block,Koramangala 4th Block,4.2,1175,1300.0,"Finger Food, Chinese, Italian, Burger",12.933849519488579,77.51615328650351
Bhandary's Kitchen,Koramangala 7th Block,Basavanagudi,3.6,16,300.0,North Indian,13.093572006969005,77.57689219785075
Punjabi Food Point,Bellandur,Sarjapur Road,3.3,200,450.0,"North Indian, Mughlai, Biryani, Chinese",13.043930686737808,77.53461083822492
Bangalore Agarwal Bhavan,Whitefield,Brookefield,3.3,6,500.0,"Mithai, Street Food",12.959186405887323,77.62486014577506
Blue Berry Restaurant,Bellandur,Bellandur,3.9,146,650.0,"North Indian, Biryani, Chinese, Beverages",12.969588282316433,77.64307894932315
Ritomi's Lov,Bellandur,Bellandur,3.7,48,400.0,North Indian,12.928518828816381,77.53474282064153
Tapout Tavern,Sarjapur Road,HSR,4.1,326,1200.0,"American, Asian, Continental, North Indian, South Indian, Chinese",13.037351144056382,77.57116551740867
Mother's Meal,CV Raman Nagar,Old Airport Road,3.8,134,200.0,North Indian,12.98926515048844,77.68056161189114
Ober Cafe,Koramangala 1st Block,HSR,3.5,10,200.0,"Fast Food, Desserts",13.09243718189836,77.69462577582914
Tandoor Da Funda,MG Road,MG Road,3.6,15,350.0,North Indian,13.00897105142386,77.63530609575182
NY8LIFE,BTM,Koramangala 7th Block,3.2,4,300.0,"North Indian, Rolls, Biryani",12.966836768475094,77.52084010859416
Chowmein,Basaveshwara Nagar,Rajajinagar,3.8,285,800.0,"Chinese, North Indian, Momos, Biryani",12.983773943945444,77.63706679906096
Jade,Brookefield,Whitefield,3.7,692,750.0,"Chinese, Seafood, Momos",13.064572436865692,77.53324620500301
Friend's Cafe,Koramangala 7th Block,Koramangala 6th Block,3.9,554,600.0,"Fast Food, American, Chinese",13.02853888330961,77.60994727035926
Shree Saraswathi Sweets Centre,Wilson Garden,Residency Road,3.4,9,100.0,"Mithai, Street Food",12.941975021807545,77.64557424035345
Rampyari Chaiwala Netaji Bhajiawala,Sarjapur Road,Sarjapur Road,3.1,26,150.0,"Street Food, South Indian",13.076091646673541,77.62679531534432
Cake Gallery,Yeshwantpur,New BEL Road,3.6,24,300.0,Bakery,12.974496806500822,77.69675377326277
YORK St.,Koramangala 5th Block,Koramangala 7th Block,4.4,950,900.0,"Cafe, European, Continental",13.067117721778585,77.60413939501662
Night Food Delivery,Indiranagar,Old Airport Road,2.9,24,500.0,"Burger, Rolls, Sandwich, North Indian",13.005208724978191,77.59130119726875
Szechwan Court - The Oberoi,MG Road,Brigade Road,4.1,168,2500.0,Chinese,12.929455112710418,77.55906864423446
Hotel Fanoos,Richmond Road,Brigade Road,4.0,787,400.0,"Arabian, Biryani, Rolls, Kebab",12.984525839402721,77.60120492889007
Moolehatti Donne Biryani Mane,HSR,Koramangala 5th Block,3.6,218,400.0,"Biryani, Chinese, North Indian, Kebab",13.03572540099765,77.61501570894109
Meat And Eat,Sarjapur Road,Bellandur,2.8,39,500.0,"Fast Food, Burger",12.926130468764693,77.68186751475817
A Hole Lotta Love Cafe,Koramangala 5th Block,Koramangala 6th Block,4.4,2873,600.0,"Cafe, American, Burger, Sandwich, Beverages",12.958358929344746,77.67787841546107
Cobaja,Brigade Road,Indiranagar,4.3,55,700.0,"Seafood, South Indian, Bar Food, Mangalorean, Konkan",12.977931484457622,77.56745724267672
K.G.N Kabbab Corner,Kalyan Nagar,Kammanahalli,4.0,91,500.0,"North Indian, Kebab",13.00533787178527,77.57980013572144
Chai Mane,Basavanagudi,Basavanagudi,3.2,6,100.0,"Beverages, Sandwich",13.065009882036012,77.53064639400665
Hotel Tadaka House,Bommanahalli,BTM,3.4,7,300.0,"North Indian, Chinese, Biryani",13.072757924593,77.6713695329206
Indian Kitchen Eateries-IKE,BTM,Jayanagar,3.4,8,150.0,Fast Food,12.932334467110742,77.5858456823066
Polar Bear,Jayanagar,Jayanagar,4.0,150,400.0,"Ice Cream, Desserts, Beverages, Sandwich",12.913585240844565,77.52887594067315
Little White Kitchen,Brigade Road,Indiranagar,3.8,18,200.0,"Chinese, Continental, North Indian, Italian",12.988431227622563,77.68456961382964
Cafe Fattoush,BTM,BTM,3.8,24,700.0,"Cafe, Lebanese",12.984002200859132,77.69432423993752
Hotel Kanchan's Fish & Chicken,Shivajinagar,Lavelle Road,3.3,4,400.0,"South Indian, Chinese",12.916463059657467,77.52064208669006
Juice Junction Food Court,Koramangala 6th Block,Koramangala 7th Block,3.7,70,250.0,"Beverages, Juices, Fast Food",12.917571236865303,77.62031411211908
What'sinaPita,Koramangala 1st Block,Koramangala 7th Block,3.9,231,400.0,"Mediterranean, Middle Eastern, Wraps, Rolls",13.063028919485157,77.59274007885458
Arabian Mexico,Bannerghatta Road,Bannerghatta Road,3.4,43,400.0,"Fast Food, Arabian",12.99250694322663,77.623335120586
Vyshali Food Corner,Shanti Nagar,Brigade Road,3.6,13,400.0,"North Indian, Chinese, South Indian",12.965646621135669,77.62141205358468
Noodle Panda,Koramangala 5th Block,Koramangala 7th Block,4.3,342,800.0,"Chinese, Indonesian, Japanese, Malaysian, Thai, Vietnamese, Momos",12.917528475765948,77.56922553918376
Mysore Carnival Restaurant,Koramangala 6th Block,Koramangala 6th Block,3.8,14,350.0,"Chinese, Kerala, North Indian, South Indian",12.92085555156631,77.6200254694116
Bistro Claytopia,Koramangala 1st Block,HSR,4.1,1847,600.0,"Cafe, American, Italian, Burger",13.071553109674488,77.67644139455439
Rim Naam - The Oberoi,MG Road,MG Road,4.6,988,3000.0,Thai,13.078347092211558,77.54279872283261
Sonar Bangala,Koramangala 5th Block,Koramangala 4th Block,3.8,76,500.0,"Bengali, North Indian",13.042022178381243,77.50963617443169
Shater Grill House,BTM,Koramangala 4th Block,3.5,8,700.0,"North Indian, Arabian, Chinese",12.951416364370274,77.532067934968
The Krishna Grand Xpress,Jayanagar,JP Nagar,4.0,137,350.0,"South Indian, Fast Food",13.050185678703345,77.6981437486747
Fillers,BTM,Jayanagar,3.9,138,300.0,"North Indian, Fast Food",12.9363015923243,77.64745006011216
iSpice Resto Cafe,Indiranagar,Indiranagar,3.7,28,600.0,"Cafe, North Indian, Chinese, Fast Food",13.054162904332864,77.50974227913551
Pizza Hut,Koramangala 5th Block,Koramangala 5th Block,3.7,116,750.0,"Pizza, Fast Food",12.978968199953004,77.67205315382536
Temple Meals,Malleshwaram,Malleshwaram,3.8,76,200.0,South Indian,12.926205701162461,77.69593553330806
Hammered,HSR,Koramangala 4th Block,4.3,416,1200.0,"North Indian, South Indian, Continental, Asian",13.010335912750527,77.50161506575449
Om Made Cafe,Koramangala 5th Block,Koramangala 6th Block,4.1,2734,1300.0,"Cafe, Continental, European, Juices",12.95527586906318,77.5736900234182
Hotel Oottupura,Ejipura,Koramangala 4th Block,3.6,21,200.0,South Indian,13.082135547983661,77.54791564947357
Spice,Electronic City,Electronic City,3.3,4,1500.0,"Andhra, Chinese, North Indian",13.018183218565445,77.50541370353585
4Foodiez,Electronic City,Electronic City,3.7,82,300.0,"South Indian, North Indian, Chinese",12.995211340430213,77.54666031074825
Northern Gate- Gateway Hotel,Residency Road,Residency Road,4.0,103,1900.0,North Indian,13.058705390334897,77.69342307475137
China On My Plate,Whitefield,Whitefield,3.0,17,800.0,Chinese,13.064647287842215,77.55583013941444
Hungrill Barbeque,Kaggadasapura,Marathahalli,3.4,8,300.0,"BBQ, Rolls",12.985176692893006,77.66883763307398
New Prashanth Hotel,JP Nagar,Bannerghatta Road,3.1,64,750.0,"South Indian, Biryani, Chinese, North Indian",12.941981118619116,77.57220441271772
Udupi Upachar,JP Nagar,JP Nagar,3.3,13,300.0,"South Indian, North Indian, Chinese, Street Food",12.952161685438556,77.66934592834156
M World Cafe,Koramangala 1st Block,BTM,3.5,14,500.0,Cafe,13.031164153465479,77.5435954359904
Chai Street,Koramangala 5th Block,Jayanagar,3.3,5,150.0,Beverages,13.056188963790097,77.60604373857345
Baker's Home,Bellandur,Sarjapur Road,3.9,179,300.0,"Bakery, Desserts",12.951023272927952,77.63278741479618
Apna Punjab,BTM,Koramangala 4th Block,3.7,477,450.0,"North Indian, Chinese, Fast Food",13.086485556595763,77.55416880895432
Karama Restaurant,Koramangala 5th Block,Koramangala 6th Block,4.1,1574,750.0,"Arabian, North Indian, Beverages",12.97380595127652,77.59729030679168
Rajdhani Thali Restaurant,Indiranagar,Indiranagar,4.0,1129,1000.0,North Indian,12.94193218442234,77.65672214711867
Jayanagar Grill House,Jayanagar,Koramangala 7th Block,3.5,35,250.0,"Biryani, Kebab",12.980966426797044,77.68436788530121
Just Shawarma,BTM,BTM,3.9,201,300.0,Arabian,12.947136506915177,77.57141964603116
Taza Khaana,HSR,Koramangala 4th Block,3.1,175,450.0,"Chinese, North Indian",12.905290901096086,77.5870914495181
Refresh,Whitefield,Brookefield,3.6,297,400.0,"Continental, Chinese, Fast Food, Rolls, Momos",12.942489455439095,77.5051360527718
Faasos,Sanjay Nagar,Malleshwaram,3.9,250,500.0,"North Indian, Biryani, Fast Food",13.04445561980727,77.64589156052959
Polar Bear,Malleshwaram,Rajajinagar,4.1,166,400.0,"Desserts, Ice Cream, Beverages, Sandwich",13.09284519117535,77.61702335173625
Rang De Basanthi,Koramangala 4th Block,Koramangala 5th Block,3.7,434,400.0,"North Indian, South Indian, Chinese",13.080226247857235,77.50843104407019
New Surya Sweets & Snacks,BTM,BTM,3.5,7,300.0,"Mithai, Fast Food",13.06073869037546,77.55267898622367
Aditya Sweets,Whitefield,Whitefield,3.7,24,200.0,"Mithai, Fast Food",12.903223460897554,77.55615264477696
The Donut Baker,Malleshwaram,Rajajinagar,3.5,8,150.0,Desserts,13.070906473917157,77.5270689632208
The Bar Stock Exchange,St. Marks Road,Residency Road,4.2,651,1300.0,"Continental, Chinese, North Indian, Finger Food",13.092849768207245,77.65568644847224
Freeze It,Jayanagar,Jayanagar,3.5,35,300.0,Ice Cream,12.96274705176893,77.693607504501
Aaha Andhra,Brigade Road,MG Road,3.6,16,900.0,"Andhra, Biryani, North Indian",13.080004719531544,77.54499548039682
Navya Andhra Style Restaurant,Hosur Road,Koramangala 5th Block,3.5,12,200.0,"North Indian, South Indian",13.002889285627061,77.63964774507741
Juicy Hut,Bannerghatta Road,Bannerghatta Road,3.2,9,200.0,"Juices, Fast Food",13.011929736697383,77.58006693639518
A1 Spice Inn,Yeshwantpur,New BEL Road,3.5,46,500.0,"Biryani, Chinese, Hyderabadi, North Indian, South Indian",13.000710430203396,77.68695732105209
The Belgian Waffle Co.,Residency Road,Brigade Road,3.7,73,350.0,"Desserts, Beverages",13.080192179138093,77.68182305504146
CK's Bakery,City Market,Frazer Town,3.5,4,200.0,"Bakery, Fast Food",12.979249469363282,77.6496985783468
Lassi Shop,Kammanahalli,Kammanahalli,3.7,17,200.0,"Beverages, Ice Cream",13.05307039878393,77.69750230812623
Krutunga,HSR,HSR,3.6,289,500.0,"Andhra, Biryani",12.92300218736562,77.5101892880826
Awesome Foods,BTM,Koramangala 4th Block,3.7,25,300.0,"Chinese, North Indian",12.94021669768121,77.67304932458819
JukeBox,Koramangala 7th Block,Koramangala 7th Block,3.9,283,1000.0,"Continental, Parsi, Chinese, North Indian, Italian, Steak",13.089185572259215,77.67817350520066
RJ Food Plaza,Old Airport Road,Old Airport Road,3.1,6,200.0,"North Indian, Biryani",12.910195352693735,77.68825779441954
Subway,Electronic City,Electronic City,3.9,146,600.0,"Salad, Fast Food",12.973433925139005,77.50702684062844
Inhouse Burger,Bellandur,Sarjapur Road,3.6,12,400.0,Fast Food,12.973584459391656,77.61747526812972
Lassi Top,Koramangala 4th Block,BTM,3.2,7,200.0,"Beverages, Ice Cream",13.09512038383133,77.52890931799567
Alankrutha,BTM,Jayanagar,3.9,257,500.0,"Andhra, Biryani, North Indian, Chinese",13.028873140098513,77.6243939671814
Samarkand,Infantry Road,Residency Road,4.1,2051,1600.0,"North Indian, Mughlai",13.049707572536917,77.66680761592474
Hotel Junior Kuppanna,HSR,BTM,3.1,266,550.0,"Chettinad, South Indian",13.0551010593438,77.6839158552718
Rolls On Wheels,Brigade Road,Lavelle Road,3.5,45,300.0,"Fast Food, Rolls, Momos",12.925781010776328,77.63693141123358
Calvin's,HSR,HSR,3.8,22,800.0,Desserts,12.934264908890876,77.58191465439376
SGS Non Veg - Gundu Pulav,St. Marks Road,Frazer Town,3.9,55,400.0,"Biryani, Fast Food",12.99106574996172,77.59451581992305
NH-1,Bellandur,Sarjapur Road,3.8,380,600.0,North Indian,12.928474448757004,77.52043962985148
Hotel Archana Grand,Bommanahalli,Koramangala 5th Block,3.6,23,500.0,"Chinese, North Indian",13.019219705534018,77.65919799902804
New Punjabi Hotel,BTM,Koramangala 4th Block,3.7,180,400.0,"North Indian, Chinese",13.099576941645692,77.56162852054847
Shyvan Restaurant,Shanti Nagar,Basavanagudi,3.6,81,500.0,"North Indian, Chinese",12.92650493454837,77.64170650537864
Keventers,New BEL Road,New BEL Road,3.9,130,400.0,"Desserts, Beverages, Ice Cream",13.01490086550028,77.67559930316405
Shree Durga,Old Airport Road,Old Airport Road,3.2,7,500.0,"North Indian, Chinese, Seafood",13.040379868773794,77.55772763693913
Hyderabadi Biryani Hub,BTM,Koramangala 4th Block,3.6,220,600.0,"Biryani, North Indian, Chinese",12.99924703477399,77.58331379902867
Pasta Street,Cunningham Road,Lavelle Road,4.5,1636,1300.0,"Italian, Pizza, Salad",12.97445172837895,77.63119667033806
Fudgy Love Designer Cakes,Domlur,Old Airport Road,3.7,20,600.0,"Bakery, Desserts",12.95041138570881,77.59566317453331
Feast and Burp,Bannerghatta Road,Brigade Road,3.3,4,300.0,North Indian,13.000022550415325,77.68014308084038
Savera Cafe,Shivajinagar,Brigade Road,3.7,11,50.0,Cafe,12.971405868794003,77.59967101846013
Papacream,JP Nagar,BTM,3.7,17,350.0,"Desserts, Ice Cream",13.099534452652932,77.6470759831892
Kingley Grand,Marathahalli,Marathahalli,3.5,11,600.0,"Biryani, North Indian, Chinese",12.947983583770904,77.58267998027301
Desi Vibes,BTM,JP Nagar,3.7,46,600.0,"North Indian, Chinese",12.993612172559093,77.6521787544222
Tata Cha,Church Street,Frazer Town,3.9,67,500.0,"Cafe, Tea, North Indian",12.906164923739874,77.61083584928453
Lassi Bistro,Marathahalli,Marathahalli,3.6,11,150.0,"Cafe, Fast Food, Beverages",12.99924117599,77.53583012051462
All Shook Up,Marathahalli,Brookefield,3.6,34,300.0,"Desserts, Beverages",13.017112745758661,77.61200083225106
Udupi Cafe,Whitefield,Whitefield,3.6,12,300.0,"South Indian, North Indian, Chinese, Street Food",12.962763238919793,77.59420164554903
Aha Juice Bar,BTM,JP Nagar,3.6,13,200.0,"Beverages, Fast Food",12.986996835834093,77.58891269713111
The Kitchen Bandit,Koramangala 2nd Block,Koramangala 5th Block,3.2,42,350.0,"Chinese, North Indian, Fast Food",12.9710471034661,77.52154394029182
Tempteys,Indiranagar,Old Airport Road,4.1,135,300.0,"Desserts, Beverages",13.056987869696913,77.56757771225128
Hyderabad Biryaani Palace,Kammanahalli,Kammanahalli,3.7,301,750.0,"Biryani, Hyderabadi, Chinese",13.057411330798073,77.57365825103174
Two Friends Cauldron,JP Nagar,BTM,4.1,454,700.0,"Continental, Italian, American",12.977361448410376,77.6097323991523
Eatsomnia,Koramangala 1st Block,HSR,3.5,435,500.0,"North Indian, South Indian, Chinese, Continental",13.088193157568558,77.57680963956767
The Fat Chef,Whitefield,Marathahalli,4.1,1752,1400.0,"Japanese, Italian, American, Asian, North Indian, Steak",13.029936167589076,77.63917493971809
Tunday Kababi,Koramangala 5th Block,Koramangala 4th Block,3.9,1142,500.0,"North Indian, Kebab",12.978112420485406,77.69774308220548
Berrylicious Cafe,MG Road,Brigade Road,4.1,125,900.0,"Continental, Cafe, Desserts, Pizza, North Indian, Chinese, Ice Cream",12.978639040205584,77.58339600471791
Me And My Cake,Shanti Nagar,Lavelle Road,3.3,4,500.0,"Bakery, Desserts",12.909777645901038,77.51916246952914
Galito's,Bannerghatta Road,Jayanagar,4.6,409,1000.0,"African, Burger",12.921376675017406,77.57780609831698
Cafe Beirut,Kammanahalli,Kalyan Nagar,3.7,41,250.0,Arabian,12.905354117140625,77.63107525525285
Baskin Robbins,Jayanagar,Jayanagar,3.6,25,250.0,"Ice Cream, Desserts",13.021913706779692,77.61295031272566
Opt For Fitness,Kammanahalli,Kammanahalli,3.4,7,400.0,"Continental, Healthy Food",13.018651894035076,77.62629587707976
Cream House,Rajajinagar,Rajajinagar,3.0,28,300.0,Desserts,13.063574611500785,77.58230871377914
Communiti,Residency Road,Lavelle Road,4.6,3998,1500.0,"Continental, BBQ, Salad",13.039847798887111,77.57256311893678
Domino's Pizza,Bellandur,Bellandur,3.2,66,800.0,"Pizza, Fast Food",12.97355719755123,77.52330656411843
Oz Pies,Bellandur,Bellandur,3.8,37,400.0,"Australian, Continental",13.013875472236457,77.56215738091473
Hotel Nisarga,Banashankari,Banashankari,3.2,5,250.0,"North Indian, South Indian",13.049208975853084,77.50642229245557
New Rajadhani Spicy,Kumaraswamy Layout,Basavanagudi,3.7,67,700.0,North Indian,13.047486753744296,77.54286911201274
Thalassery Food Court,Bannerghatta Road,JP Nagar,3.1,4,650.0,"Kerala, Arabian, Seafood, Beverages",13.039252695060107,77.68104102636352
Ice & Spice,Frazer Town,MG Road,3.0,96,650.0,"Continental, Pizza, Fast Food",13.05284870308153,77.55675595242232
Nutrition on Wheels,BTM,BTM,2.9,23,300.0,Healthy Food,13.03003743328913,77.53420100333075
The Brekkie Shop,Indiranagar,Frazer Town,3.7,58,300.0,"Healthy Food, Sandwich",13.081687509574452,77.67976818142401
Mayur,Hosur Road,Koramangala 4th Block,3.7,21,700.0,"Andhra, North Indian, Chinese, Seafood",13.028347408962805,77.57297822321702
Lassi Corner,Whitefield,Whitefield,3.3,16,200.0,"Beverages, Desserts",12.949397799057136,77.61192681810641
Akshaya Sambrama Veg Restaurant,Vasanth Nagar,Church Street,3.2,13,200.0,"South Indian, Chinese",12.95736932912944,77.59032820545355
Upahara Sagar,Jayanagar,Jayanagar,3.0,25,300.0,"South Indian, North Indian, Chinese",12.956679538914118,77.62001682238083
Sidewalk Cafe & Bar - The Paul Bangalore,Domlur,Koramangala 5th Block,4.2,217,1500.0,"European, Italian, Asian",13.07955481365101,77.64476988773912
A Today Thick Shakes,Koramangala 5th Block,BTM,3.2,9,200.0,Beverages,13.068324401508555,77.57136034602667
Me And My Cake,Shanti Nagar,Residency Road,3.3,4,500.0,"Bakery, Desserts",12.975690262496798,77.58591437287194
Imperial Room,Majestic,Lavelle Road,3.2,4,1000.0,"North Indian, Chinese",12.909498844936465,77.59565072710151
Gam's Delicacy,Koramangala 7th Block,Koramangala 4th Block,4.2,325,800.0,"North Indian, Chinese, Assamese",13.012533356131266,77.53719739991915
Foodies Club,BTM,BTM,3.4,5,300.0,"South Indian, Chinese, North Indian, Sandwich, Rolls",13.059002307385693,77.59422177283511
Sweet Chariot,Koramangala 7th Block,Koramangala 4th Block,4.0,186,500.0,"Bakery, Fast Food",13.014270313141388,77.51651462071027
KFC,Frazer Town,Frazer Town,3.3,263,400.0,"Burger, Fast Food",12.957761993990818,77.6209990848274
Cafe Imroze,Infantry Road,Brigade Road,3.6,95,650.0,"Cafe, Burger, Italian, Fast Food",13.02446865292345,77.51861066061875
The Big Grill,Marathahalli,Marathahalli,3.4,9,400.0,"North Indian, Chinese, Mughlai",12.999358251685939,77.62066023752547
Cool Joint,Commercial Street,Church Street,3.6,25,250.0,"Beverages, Desserts",13.02920938881932,77.50339100429815
Beijing Bites,Rajarajeshwari Nagar,Banashankari,3.7,679,850.0,"Chinese, Thai",12.962342215217882,77.66583469639984
Swad Plaza,BTM,BTM,3.4,6,400.0,"North Indian, Chinese",13.082357022476353,77.5005263288043
Firangi Bake,BTM,Koramangala 6th Block,4.1,95,600.0,"Mexican, Italian",13.01518209348348,77.6693101103277
Fava Bistro,Koramangala 5th Block,Koramangala 7th Block,4.4,391,1500.0,"Mediterranean, Pizza, Italian, Beverages",12.986745655954921,77.64159314167868
Chili's American Grill & Bar,Malleshwaram,Malleshwaram,4.8,6433,1400.0,"American, Tex-Mex, Burger, BBQ, Mexican",13.034900755753247,77.69887537994356
Pai Vihar,Vasanth Nagar,Church Street,2.8,56,400.0,"South Indian, Street Food, Chinese, Fast Food",12.965651017855468,77.6291444429296
Dive,Marathahalli,Marathahalli,4.3,758,1300.0,"Continental, Finger Food",13.026384856285624,77.64818272791365
Hangover,Indiranagar,Old Airport Road,4.0,1431,1500.0,"Thai, Chinese, North Indian, Continental, Steak",13.07615300232162,77.68239883026901
Hungry Bird,Sarjapur Road,Sarjapur Road,3.8,19,400.0,"North Indian, Chinese, Biryani",12.980832764306598,77.68255056163218
Scottish Pub,St. Marks Road,MG Road,3.9,190,600.0,Finger Food,13.036639570137,77.67042419176364
Shree Guru Sagar,Basaveshwara Nagar,Rajajinagar,3.5,40,500.0,"Chinese, North Indian, South Indian",12.938384361618164,77.5994487239209
Shri Madhuram,HSR,Koramangala 4th Block,3.9,371,400.0,"South Indian, North Indian",13.097108096134807,77.50076509488935
Al Swaad Take Away,Richmond Road,Church Street,3.1,13,350.0,"North Indian, South Indian, Arabian",12.936762577896364,77.6990561214131
Royal Calcutta Restaurant,HSR,BTM,3.3,57,400.0,"Bengali, North Indian, Chinese",12.96688850542362,77.50639970373639
Mr. Singh Da Dhaba,Kumaraswamy Layout,Banashankari,3.6,241,300.0,"North Indian, Chinese",12.985798805475003,77.53548735685469
Cakes Wagon,Bellandur,Sarjapur Road,3.4,6,300.0,"Desserts, Bakery",12.918827952133938,77.69726003538895
Toscano,Koramangala 7th Block,Jayanagar,4.5,715,1500.0,"Italian, Salad",12.918202361376503,77.56282670338508
The Egg Factory,HSR,HSR,4.0,136,750.0,"Continental, American",12.999625934836796,77.66051531974915
De Thaali,Jayanagar,Banashankari,3.9,144,550.0,"North Indian, Chinese, Rolls",12.974031740051089,77.55514726132711
Hotel Godavari,BTM,Koramangala 6th Block,3.9,227,500.0,"Andhra, Chinese, North Indian, Biryani",12.938607748258756,77.5571844309701
Three Dots & A Dash,Indiranagar,Indiranagar,4.1,3864,1300.0,"European, Continental",13.01413793231537,77.68322391668674
Frolic,Koramangala 7th Block,Koramangala 7th Block,4.0,34,200.0,"Juices, Ice Cream",13.029133182242468,77.52578025023269
Aasife & Brothers Biriyani Centre,HSR,HSR,3.9,125,600.0,"Biryani, North Indian, South Indian, Chinese",12.931266287678568,77.62083069413308
Toscano,Malleshwaram,Rajajinagar,4.3,1102,1500.0,"Italian, Salad, Mediterranean",13.020030529614722,77.60186407519971
Sankranthi Veg Restaurant,BTM,Bannerghatta Road,3.0,102,600.0,"South Indian, North Indian, Chinese",12.97529267337561,77.63355637980604
Machali Port,JP Nagar,JP Nagar,3.9,34,750.0,"Mangalorean, Seafood, North Indian",12.942784574099944,77.69525283450206
Marathi Biriyani House,Frazer Town,Kammanahalli,3.3,6,300.0,"South Indian, Biryani",12.941748506685679,77.55136803915747
Frozen Bottle,Infantry Road,Lavelle Road,3.7,19,400.0,"Beverages, Desserts, Ice Cream",12.968491257059327,77.58201185275686
Kerala Tiffin,Whitefield,Brookefield,3.9,162,300.0,Kerala,12.979903756917388,77.53372638542936
Fresh Kitchen,Bannerghatta Road,JP Nagar,3.3,22,600.0,"North Indian, Chinese",12.922210488875622,77.64536225154013
SGS Non Veg - Gundu Pulav,Jayanagar,Jayanagar,3.4,70,400.0,"Biryani, Fast Food",12.961671014126463,77.63505463959072
Pizza Hut,Koramangala 6th Block,Koramangala 5th Block,3.9,490,750.0,"Pizza, Fast Food",12.998862849610012,77.67577565572911
Donne Biriyani Mane,Church Street,Residency Road,3.4,64,400.0,"Biryani, Kebab",13.031435301054696,77.6099077162011
Sagar Fast Food,Koramangala 3rd Block,Koramangala 7th Block,3.9,76,300.0,"South Indian, North Indian, Fast Food",12.978702802532725,77.55851257797185
Shebestan - Sterlings MAC Hotel,Old Airport Road,Indiranagar,4.2,405,1500.0,Arabian,12.912863844638718,77.65044240539426
Chai Point,Jayanagar,Basavanagudi,3.2,208,250.0,"Tea, Beverages, Fast Food",13.03530267715545,77.50880966723251
Rolls On Wheel,Koramangala 5th Block,BTM,3.0,18,300.0,"Fast Food, Rolls",12.918083795558333,77.6117061588162
Tree Tops Bar & Kitchen,Lavelle Road,Brigade Road,4.4,189,1000.0,"North Indian, Chinese, Continental, Italian",12.933471406447357,77.56889900337262
Hyderabadi Zaiqa,Bellandur,Marathahalli,3.1,44,700.0,"Hyderabadi, North Indian, Biryani",12.908385270875597,77.59105527527514
Kebarbiq,Koramangala 7th Block,BTM,4.0,138,800.0,"North Indian, Arabian, Mughlai, Middle Eastern, Grill",12.929322911431969,77.6259976227186
Eat Street,Koramangala 6th Block,Koramangala 7th Block,4.2,1534,600.0,"North Indian, Chinese, Italian, Street Food, Desserts",13.009128225318713,77.61618359725588
The Jade Kitchen,JP Nagar,Jayanagar,3.9,118,600.0,"Chinese, Thai",12.943014294293011,77.54630220888896
Pizza Stop,Cunningham Road,Residency Road,3.9,147,600.0,"Pizza, Italian",12.998226577964097,77.55464076499966
Trippy Paradise,BTM,Jayanagar,2.6,60,900.0,Cafe,12.976472919583342,77.54237931177879
Sri Krishna Sagar,Koramangala 6th Block,Koramangala 4th Block,3.9,43,300.0,South Indian,12.909145322952455,77.58908832078443
The Bundle Co.,MG Road,Lavelle Road,4.4,227,700.0,"Burger, Continental, Italian, Beverages",13.029385339593137,77.5906718902304
Royal Paris,BTM,Jayanagar,3.9,71,1000.0,"North Indian, Arabian, Chinese",12.923111339767267,77.57565613854582
Momo Mania,Brookefield,Marathahalli,3.8,26,300.0,"Momos, Fast Food",13.049217264564325,77.57269459796555
Flavour of China,BTM,BTM,3.8,254,550.0,Chinese,13.015708363640707,77.51797257694699
Cucumber Town,BTM,Jayanagar,4.2,310,600.0,"Kerala, North Indian",13.071809265941331,77.55655743249429
Dosalicious,Koramangala 6th Block,Koramangala 7th Block,3.3,7,150.0,South Indian,13.052106797601938,77.61256726408807
YumYumDilli,Hennur,Kalyan Nagar,3.2,107,500.0,North Indian,13.022691485326252,77.55264742775391
Taco Bell,Brookefield,Marathahalli,4.0,784,600.0,"Mexican, American, Fast Food",12.906156166350705,77.57463936974138
New Ambur Biryani,Koramangala 7th Block,Koramangala 4th Block,3.2,6,150.0,Biryani,12.990462834952696,77.62459620923006
Juice Junction Food Court,Koramangala 6th Block,BTM,3.7,70,250.0,"Beverages, Juices, Fast Food",12.90903027288246,77.57017132868847
China Bistro & Lounge,Indiranagar,Indiranagar,4.4,83,1600.0,"Asian, Chinese, Thai, Korean",13.019071144502062,77.50782249761221
Belgian Waffle Factory,Brigade Road,Frazer Town,4.9,1743,400.0,Desserts,13.008477312038087,77.66516036843106
Mast Punjabi,Kumaraswamy Layout,Banashankari,2.6,231,400.0,"North Indian, Chinese, Rolls, Biryani, Kebab",12.958889778413917,77.5606207547604
Taj Darbar,Koramangala 5th Block,Koramangala 7th Block,3.8,149,600.0,"Biryani, Mughlai, Chinese",12.972227503421145,77.50319270085407
Biryani Factory,Whitefield,Whitefield,2.9,17,400.0,Biryani,13.082547694686212,77.5869916164516
Ande Ka Funda,Jayanagar,Jayanagar,3.5,30,200.0,"Fast Food, North Indian",12.979719932543691,77.55131270391233
Hyderabad Bawarchi,Jayanagar,Koramangala 7th Block,3.9,118,800.0,"North Indian, Biryani, Chinese",13.048752534850578,77.54156034663066
Tasty Noodle,HSR,Koramangala 4th Block,3.4,5,400.0,"Chinese, Seafood",12.95367567305543,77.59169792502506
La Pino'z Pizza,Koramangala 4th Block,Koramangala 5th Block,4.1,506,600.0,"Italian, Pizza, Beverages",12.95923486292032,77.50493170071242
Asia Kitchen By Mainland China,Koramangala 5th Block,Koramangala 7th Block,4.9,2256,1500.0,"Asian, Chinese, Thai, Momos",13.09135364344297,77.67044133503077
Hotel Tom's Restaurant,Richmond Road,Lavelle Road,4.4,719,1000.0,"Mangalorean, Seafood, Chinese, North Indian",12.958476022543053,77.68061306136812
Sri Vishnu Upahar,Koramangala 4th Block,Koramangala 5th Block,3.6,28,250.0,"North Indian, South Indian",13.032739027782476,77.60652731435304
Dialogues,JP Nagar,Jayanagar,4.0,129,600.0,"Cafe, Continental",12.977579705790346,77.66766869417911
The Black Pearl,Marathahalli,Marathahalli,4.8,7284,1500.0,"North Indian, European, Mediterranean, BBQ",13.036795735364082,77.67324825964778
Smaaash,MG Road,Church Street,4.2,538,1500.0,"North Indian, Pizza, Chinese",12.925750887473612,77.65418392186358
Maaheshwari Chaat Wala,Ulsoor,Brigade Road,3.9,27,100.0,Street Food,12.998513814150659,77.63440500442398
Kota Kachori,Koramangala 6th Block,BTM,4.3,3605,400.0,"Street Food, Desserts, North Indian, Mithai, Rajasthani",13.029120515411682,77.57714295752058
Delhi Restaurant,Whitefield,Whitefield,3.6,196,350.0,"North Indian, Mughlai, Chinese",12.985635807622872,77.65803556862085
Ithaca - The Chancery Pavilion,Residency Road,Lavelle Road,3.9,312,2000.0,"North Indian, Italian, European, Continental",13.037215192852434,77.64823688505058
HSR High Street,HSR,Koramangala 4th Block,3.8,321,800.0,"Hyderabadi, North Indian, South Indian, Biryani",13.076755491641718,77.61233542908518
Bake and Juice,BTM,Jayanagar,3.5,15,400.0,Fast Food,13.05502921554572,77.60421119372644
Bon Appetit Resto,New BEL Road,New BEL Road,3.8,50,300.0,"North Indian, Chinese",12.989752777685368,77.57983317684403
Madeena Hotel,Koramangala 5th Block,Koramangala 7th Block,4.0,88,400.0,"North Indian, Mughlai, Biryani",12.940593882832838,77.6815188597422
